[
  {
    "id": 8,
    "Latitude": "41.6207872",
    "Longitude": "-83.4799506",
    "Address": "2801 Bay Park Drive ",
    "ZipCode": "43616",
    "City": "Oregon",
    "State": "Ohio",
    "DirectURL": "promedica-bay-park-hospital"
  },
  {
    "id": 18,
    "Latitude": null,
    "Longitude": null,
    "Address": null,
    "ZipCode": "43560",
    "City": null,
    "State": null,
    "DirectURL": "promedica-flower-hospital"
  },
  {
    "id": 19,
    "Latitude": "41.1628266",
    "Longitude": "-83.4242445",
    "Address": "501 Van Buren St. ",
    "ZipCode": "44830",
    "City": "Fostoria",
    "State": "Ohio",
    "DirectURL": "promedica-fostoria-community-hospital"
  },
  {
    "id": 21,
    "Latitude": "40.7355618",
    "Longitude": "-84.0858791",
    "Address": "1001 Bellefontaine Ave. ",
    "ZipCode": "45804",
    "City": "Lima",
    "State": "Ohio",
    "DirectURL": "lima-memorial-health-system"
  },
  {
    "id": 22,
    "Latitude": "41.3395073",
    "Longitude": "-83.1349326",
    "Address": "715 S. Taft Ave. ",
    "ZipCode": "43420",
    "City": "Fremont",
    "State": "Ohio",
    "DirectURL": "promedica-memorial-hospital"
  },
  {
    "id": 23,
    "Latitude": "41.9255529",
    "Longitude": "-83.3887474",
    "Address": "718 N. Macomb St. ",
    "ZipCode": "48162",
    "City": "Monroe",
    "State": "Michigan",
    "DirectURL": "promedica-monroe-regional-hospital"
  },
  {
    "id": 27,
    "Latitude": "41.6737363",
    "Longitude": "-83.67370460000001",
    "Address": "2901 N. Reynolds Road ",
    "ZipCode": "43615",
    "City": "Toledo",
    "State": "Ohio",
    "DirectURL": "promedica-wildwood-orthopaedic-and-spine-hospital"
  },
  {
    "id": 38,
    "Latitude": "41.2986899",
    "Longitude": "-84.3767112",
    "Address": "1200 Ralston Ave. ",
    "ZipCode": "43512",
    "City": "Defiance",
    "State": "Ohio",
    "DirectURL": "promedica-defiance-regional-hospital"
  },
  {
    "id": 40,
    "Latitude": "41.6787941",
    "Longitude": "-83.5927002",
    "Address": "1 ProMedica Parkway ",
    "ZipCode": "43606",
    "City": "Toledo",
    "State": "Ohio",
    "DirectURL": "promedica-toledo-hospital"
  },
  {
    "id": 41,
    "Latitude": "41.6730403",
    "Longitude": "-83.5949906",
    "Address": "2142 N. Cove Blvd. ",
    "ZipCode": "43606",
    "City": "Toledo",
    "State": "Ohio",
    "DirectURL": "promedica-russell-j-ebeid-children-s-hospital"
  },
  {
    "id": 44,
    "Latitude": "41.7103358",
    "Longitude": "-83.6943191",
    "Address": "5308 Harroun Road Suite 160",
    "ZipCode": "43560",
    "City": "Sylvania",
    "State": "Ohio",
    "DirectURL": "promedica-physicians-breast-surgery-1"
  },
  {
    "id": 46,
    "Latitude": "41.3395073",
    "Longitude": "-83.1349326",
    "Address": "715 S. Taft Ave. ",
    "ZipCode": "43420",
    "City": "Fremont",
    "State": "Ohio",
    "DirectURL": "promedica-memorial-hospital-women-s-diagnostic-center"
  },
  {
    "id": 47,
    "Latitude": "41.1510983",
    "Longitude": "-83.42307939999999",
    "Address": "455 W. Fourth St. Suite 100",
    "ZipCode": "44830",
    "City": "Fostoria",
    "State": "Ohio",
    "DirectURL": "promedica-physicians-family-medicine-fostoria"
  },
  {
    "id": 48,
    "Latitude": "41.9167948",
    "Longitude": "-84.0465195",
    "Address": "901 Kimole Lane Suite A-1",
    "ZipCode": "49221",
    "City": "Adrian",
    "State": "Michigan",
    "DirectURL": "promedica-physicians-obstetrics-gynecology-adrian"
  },
  {
    "id": 50,
    "Latitude": "41.9685777",
    "Longitude": "-83.9644588",
    "Address": "5449 S. Occidental Hwy. ",
    "ZipCode": "49286",
    "City": "Tecumseh",
    "State": "Michigan",
    "DirectURL": "promedica-physicians-obstetrics-gynecology-tecumseh"
  },
  {
    "id": 52,
    "Latitude": "41.6741917",
    "Longitude": "-83.5948238",
    "Address": "2109 Hughes Drive Suite 720",
    "ZipCode": "43606",
    "City": "Toledo",
    "State": "Ohio",
    "DirectURL": "promedica-physicians-cardiothoracic-surgeons"
  },
  {
    "id": 53,
    "Latitude": "41.2986899",
    "Longitude": "-84.3767112",
    "Address": "1200 Ralston Ave. ",
    "ZipCode": "43512",
    "City": "Defiance",
    "State": "Ohio",
    "DirectURL": "coping-center-defiance-regional-hospital"
  },
  {
    "id": 54,
    "Latitude": "41.678478",
    "Longitude": "-83.5945103",
    "Address": "2100 W. Central Ave. Suite 100A",
    "ZipCode": "43606",
    "City": "Toledo",
    "State": "Ohio",
    "DirectURL": "promedica-physicians-pediatric-endocrinology-1"
  },
  {
    "id": 60,
    "Latitude": "41.6748",
    "Longitude": "-83.595376",
    "Address": "2121 Hughes Drive Suite 310",
    "ZipCode": "43606",
    "City": "Toledo",
    "State": "Ohio",
    "DirectURL": "promedica-physicians-orthopaedics-l-trauma-and-adult-reconstruction"
  },
  {
    "id": 62,
    "Latitude": "41.6623638",
    "Longitude": "-83.56503769999999",
    "Address": "2105 Lawrence Ave. ",
    "ZipCode": "43606",
    "City": "Toledo",
    "State": "Ohio",
    "DirectURL": "promedica-russell-j-ebeid-children-s-hospital-finnegan-family-autism-center"
  },
  {
    "id": 63,
    "Latitude": "41.3391765",
    "Longitude": "-83.1329846",
    "Address": "710 Cleveland Ave. ",
    "ZipCode": "43420",
    "City": "Fremont",
    "State": "Ohio",
    "DirectURL": "promedica-360health-fremont"
  },
  {
    "id": 66,
    "Latitude": "41.914112",
    "Longitude": "-84.0469324",
    "Address": "781 Lakeshire Trail ",
    "ZipCode": "49221",
    "City": "Adrian",
    "State": "Michigan",
    "DirectURL": "promedica-physicians-internal-medicine-l-family-medicine"
  },
  {
    "id": 67,
    "Latitude": "41.9145603",
    "Longitude": "-84.048873",
    "Address": "777 Kimole Lane Grace Christman Building. Suite 140",
    "ZipCode": "49221",
    "City": "Adrian",
    "State": "Michigan",
    "DirectURL": "promedica-physicians-mcclure-cardiology"
  },
  {
    "id": 69,
    "Latitude": "41.6741917",
    "Longitude": "-83.5948238",
    "Address": "2109 Hughes Drive Suite 450",
    "ZipCode": "43606",
    "City": "Toledo",
    "State": "Ohio",
    "DirectURL": "promedica-physicians-jobst-vascular-toledo"
  },
  {
    "id": 72,
    "Latitude": "41.678478",
    "Longitude": "-83.5945103",
    "Address": "2100 W. Central Ave. ",
    "ZipCode": "43606",
    "City": "Toledo",
    "State": "Ohio",
    "DirectURL": "mary-ellen-falzone-diabetes-center"
  },
  {
    "id": 73,
    "Latitude": "41.6730403",
    "Longitude": "-83.5949906",
    "Address": "2142 N. Cove Blvd. 1st Floor",
    "ZipCode": "43606",
    "City": "Toledo",
    "State": "Ohio",
    "DirectURL": "maternal-fetal-medicine-at-promedica-toledo-hospital"
  },
  {
    "id": 75,
    "Latitude": "41.9131182",
    "Longitude": "-84.0478821",
    "Address": "770 Riverside Ave. Suite 105",
    "ZipCode": "49221",
    "City": "Adrian",
    "State": "Michigan",
    "DirectURL": "promedica-physicians-orthopaedic-surgery-adrian"
  },
  {
    "id": 76,
    "Latitude": "41.1510983",
    "Longitude": "-83.42307939999999",
    "Address": "455 W. 4th Street Suite 20",
    "ZipCode": "44830",
    "City": "Fostoria",
    "State": "Ohio",
    "DirectURL": "promedica-physicians-obstetrics-gynecology-fostoria"
  },
  {
    "id": 78,
    "Latitude": "41.6730403",
    "Longitude": "-83.5949906",
    "Address": "2142 N. Cove Blvd Suite 640",
    "ZipCode": "43606",
    "City": "Toledo",
    "State": "Ohio",
    "DirectURL": "promedica-physicians-pediatric-critical-care"
  },
  {
    "id": 83,
    "Latitude": "41.7077756",
    "Longitude": "-83.66700729999999",
    "Address": "5520 Monroe St. ",
    "ZipCode": "43560",
    "City": "Sylvania",
    "State": "Ohio",
    "DirectURL": "promedica-at-home"
  },
  {
    "id": 84,
    "Latitude": "41.6207872",
    "Longitude": "-83.4799506",
    "Address": "2801 Bay Park Drive ",
    "ZipCode": "43616",
    "City": "Oregon",
    "State": "Ohio",
    "DirectURL": "promedica-bay-park-hospital-laboratory"
  },
  {
    "id": 86,
    "Latitude": "41.6207872",
    "Longitude": "-83.4799506",
    "Address": "2801 Bay Park Drive ",
    "ZipCode": "43616",
    "City": "Oregon",
    "State": "Ohio",
    "DirectURL": "promedica-bay-park-hospital-radiology"
  },
  {
    "id": 88,
    "Latitude": "41.6207872",
    "Longitude": "-83.4799506",
    "Address": "2801 Bay Park Drive ",
    "ZipCode": "43616",
    "City": "Oregon",
    "State": "Ohio",
    "DirectURL": "promedica-bay-park-hospital-women-s-center"
  },
  {
    "id": 93,
    "Latitude": "41.8546647",
    "Longitude": "-84.3566285",
    "Address": "331 W. Main St. ",
    "ZipCode": "49221",
    "City": "Hudson",
    "State": "Michigan",
    "DirectURL": "promedica-radiology-2"
  },
  {
    "id": 97,
    "Latitude": "41.6748",
    "Longitude": "-83.595376",
    "Address": "2121 Hughes Drive 1st Floor",
    "ZipCode": "43606",
    "City": "Toledo",
    "State": "Ohio",
    "DirectURL": "promedica-breast-care"
  },
  {
    "id": 99,
    "Latitude": "41.2998958",
    "Longitude": "-84.37445699999999",
    "Address": "1252 Ralston Ave. Suite 301 ",
    "ZipCode": "43512",
    "City": "Defiance",
    "State": "Ohio",
    "DirectURL": "promedica-defiance-regional-hospital-cardiac-rehab"
  },
  {
    "id": 100,
    "Latitude": "41.1628266",
    "Longitude": "-83.4242445",
    "Address": "501 Van Buren St. ",
    "ZipCode": "44830",
    "City": "Fostoria",
    "State": "Ohio",
    "DirectURL": "promedica-fostoria-community-hospital-cardiac-rehab"
  },
  {
    "id": 101,
    "Latitude": "41.3395073",
    "Longitude": "-83.1349326",
    "Address": "715 S. Taft Ave. ",
    "ZipCode": "43420",
    "City": "Fremont",
    "State": "Ohio",
    "DirectURL": "promedica-memorial-hospital-cardiac-rehab-fremont"
  },
  {
    "id": 103,
    "Latitude": "41.7093178",
    "Longitude": "-83.6904552",
    "Address": "5200 Harroun Road ",
    "ZipCode": "43560",
    "City": "Sylvania",
    "State": "Ohio",
    "DirectURL": "promedica-flower-hospital-cardiac-rehab-sylvania"
  },
  {
    "id": 104,
    "Latitude": "41.3002029",
    "Longitude": "-84.3745218",
    "Address": "1250 Ralston Ave. Suite 105",
    "ZipCode": "43512",
    "City": "Defiance",
    "State": "Ohio",
    "DirectURL": "promedica-psychiatric-services"
  },
  {
    "id": 106,
    "Latitude": "41.2986899",
    "Longitude": "-84.3767112",
    "Address": "1200 Ralston Ave. ",
    "ZipCode": "43512",
    "City": "Defiance",
    "State": "Ohio",
    "DirectURL": "promedica-defiance-regional-hospital-laboratory"
  },
  {
    "id": 110,
    "Latitude": "41.7103358",
    "Longitude": "-83.6943191",
    "Address": "5308 Harroun Road Suite 0050",
    "ZipCode": "43560",
    "City": "Sylvania",
    "State": "Ohio",
    "DirectURL": "promedica-flower-hospital-laboratory"
  },
  {
    "id": 111,
    "Latitude": "41.7094604",
    "Longitude": "-83.69121389999999",
    "Address": "5300 Harroun Road Suite 304",
    "ZipCode": "43560",
    "City": "Sylvania",
    "State": "Ohio",
    "DirectURL": "promedica-physicians-family-medicine-flower"
  },
  {
    "id": 113,
    "Latitude": "41.6802208",
    "Longitude": "-83.59420440000001",
    "Address": "2120 W. Central Ave. ",
    "ZipCode": "43606",
    "City": "Toledo",
    "State": "Ohio",
    "DirectURL": "promedica-genito-urinary-surgeons-toledo"
  },
  {
    "id": 114,
    "Latitude": "41.5218318",
    "Longitude": "-84.32174239999999",
    "Address": "121 Westfield Drive ",
    "ZipCode": "43502",
    "City": "Archbold",
    "State": "Ohio",
    "DirectURL": "promedica-genito-urinary-surgeons-archbold"
  },
  {
    "id": 116,
    "Latitude": "41.1629838",
    "Longitude": "-83.4237603",
    "Address": "501 Van Buren St. Suite 203",
    "ZipCode": "44830",
    "City": "Fostoria",
    "State": "Ohio",
    "DirectURL": "promedica-genito-urinary-surgeons-fostoria"
  },
  {
    "id": 117,
    "Latitude": "41.340326",
    "Longitude": "-83.1372157",
    "Address": "605 Third Ave. Suite B",
    "ZipCode": "43420",
    "City": "Fremont",
    "State": "Ohio",
    "DirectURL": "promedica-genito-urinary-surgeons-fremont"
  },
  {
    "id": 118,
    "Latitude": "41.5581149",
    "Longitude": "-83.6784727",
    "Address": "5757 Monclova Road Suite 6",
    "ZipCode": "43537",
    "City": "Maumee",
    "State": "Ohio",
    "DirectURL": "promedica-genito-urinary-surgeons-maumee"
  },
  {
    "id": 119,
    "Latitude": "41.2986899",
    "Longitude": "-84.3767112",
    "Address": "1200 Ralston Ave. ",
    "ZipCode": "43512",
    "City": "Defiance",
    "State": "Ohio",
    "DirectURL": "nu-el-a-lifetime-boutique"
  },
  {
    "id": 121,
    "Latitude": "41.6741917",
    "Longitude": "-83.5948238",
    "Address": "2109 Hughes Drive Jobst Tower. 1st Floor",
    "ZipCode": "43606",
    "City": "Toledo",
    "State": "Ohio",
    "DirectURL": "promedica-heart-failure-clinic-toledo"
  },
  {
    "id": 133,
    "Latitude": "41.7130498",
    "Longitude": "-83.6839555",
    "Address": "5855 Monroe St. Suite 201",
    "ZipCode": "43560",
    "City": "Sylvania",
    "State": "Ohio",
    "DirectURL": "promedica-hospice-sylvania"
  },
  {
    "id": 134,
    "Latitude": "41.1628266",
    "Longitude": "-83.4242445",
    "Address": "501 Van Buren St. ",
    "ZipCode": "44830",
    "City": "Fostoria",
    "State": "Ohio",
    "DirectURL": "jobst-medication-therapy-management-fostoria"
  },
  {
    "id": 135,
    "Latitude": "41.6741917",
    "Longitude": "-83.5948238",
    "Address": "2109 Hughes Drive Suite 550",
    "ZipCode": "43606",
    "City": "Toledo",
    "State": "Ohio",
    "DirectURL": "jobst-medication-therapy-management-toledo"
  },
  {
    "id": 137,
    "Latitude": "41.8350684",
    "Longitude": "-83.8830356",
    "Address": "157 W. Brooke Lane ",
    "ZipCode": "49228",
    "City": "Blissfield",
    "State": "Michigan",
    "DirectURL": "promedica-laboratories-blissfield"
  },
  {
    "id": 138,
    "Latitude": "42.01239229999999",
    "Longitude": "-84.1902015",
    "Address": "400 N. Main St. ",
    "ZipCode": "49265",
    "City": "Onsted",
    "State": "Michigan",
    "DirectURL": "promedica-laboratories-onsted"
  },
  {
    "id": 139,
    "Latitude": "41.9332258",
    "Longitude": "-84.0037639",
    "Address": "3245 N. Adrian Highway ",
    "ZipCode": "49221",
    "City": "Adrian",
    "State": "Michigan",
    "DirectURL": "promedica-laboratories-adrian"
  },
  {
    "id": 140,
    "Latitude": "41.7464565",
    "Longitude": "-83.6237852",
    "Address": "7300 Secor Road Ste. 6",
    "ZipCode": "48144",
    "City": "Lambertville",
    "State": "Michigan",
    "DirectURL": "promedica-laboratories-lambertville"
  },
  {
    "id": 141,
    "Latitude": "41.5770786",
    "Longitude": "-83.68824819999999",
    "Address": "660 Beaver Creek Circle Suite 120",
    "ZipCode": "43537",
    "City": "Maumee",
    "State": "Ohio",
    "DirectURL": "promedica-laboratories-arrowhead"
  },
  {
    "id": 142,
    "Latitude": "41.678248",
    "Longitude": "-83.59655719999999",
    "Address": "2150 W. Central Ave. Room H",
    "ZipCode": "43606",
    "City": "Toledo",
    "State": "Ohio",
    "DirectURL": "promedica-laboratories-center-for-health-services"
  },
  {
    "id": 147,
    "Latitude": "41.6740292",
    "Longitude": "-83.7020785",
    "Address": "3020 N. McCord Road Suite 101",
    "ZipCode": "43615",
    "City": "Toledo",
    "State": "Ohio",
    "DirectURL": "promedica-laboratories-mccord-road"
  },
  {
    "id": 149,
    "Latitude": "41.0816088",
    "Longitude": "-83.11033689999999",
    "Address": "3101 W. US Route 224 ",
    "ZipCode": "44883",
    "City": "Tiffin",
    "State": "Ohio",
    "DirectURL": "promedica-laboratories-tiffin"
  },
  {
    "id": 151,
    "Latitude": "41.5298893",
    "Longitude": "-83.6375863",
    "Address": "1601 Brigham Drive Suite 180",
    "ZipCode": "43551",
    "City": "Perrysburg",
    "State": "Ohio",
    "DirectURL": "promedica-laboratories-levis-commons"
  },
  {
    "id": 152,
    "Latitude": "41.7088714",
    "Longitude": "-83.4999808",
    "Address": "4805 Suder Ave. ",
    "ZipCode": "43611",
    "City": "Toledo",
    "State": "Ohio",
    "DirectURL": "promedica-laboratories-point-place"
  },
  {
    "id": 153,
    "Latitude": "41.6344082",
    "Longitude": "-83.47248209999999",
    "Address": "3156 Dustin Road Suite 102",
    "ZipCode": "43616",
    "City": "Oregon",
    "State": "Ohio",
    "DirectURL": "promedica-laboratories-oregon"
  },
  {
    "id": 155,
    "Latitude": "41.5792602",
    "Longitude": "-83.87670589999999",
    "Address": "22 Turtle Creek Circle ",
    "ZipCode": "43558",
    "City": "Swanton",
    "State": "Ohio",
    "DirectURL": "promedica-laboratories-swanton"
  },
  {
    "id": 160,
    "Latitude": "41.5900482",
    "Longitude": "-83.5684258",
    "Address": "1215 Grassy Lane ",
    "ZipCode": "43460",
    "City": "Rossford",
    "State": "Ohio",
    "DirectURL": "promedica-laboratories-rossford"
  },
  {
    "id": 164,
    "Latitude": "41.8546647",
    "Longitude": "-84.3566285",
    "Address": "331 W. Main St. ",
    "ZipCode": "49247",
    "City": "Hudson",
    "State": "Michigan",
    "DirectURL": "promedica-laboratories-hudson"
  },
  {
    "id": 167,
    "Latitude": "41.9167948",
    "Longitude": "-84.0465195",
    "Address": "901 Kimole Lane ",
    "ZipCode": "49221",
    "City": "Adrian",
    "State": "Michigan",
    "DirectURL": "promedica-laboratories-wolf-creek"
  },
  {
    "id": 169,
    "Latitude": "41.3395073",
    "Longitude": "-83.1349326",
    "Address": "715 S. Taft Ave. ",
    "ZipCode": "43420",
    "City": "Fremont",
    "State": "Ohio",
    "DirectURL": "promedica-memorial-hospital-laboratory"
  },
  {
    "id": 170,
    "Latitude": "41.3395073",
    "Longitude": "-83.1349326",
    "Address": "715 S. Taft Ave. ",
    "ZipCode": "43420",
    "City": "Fremont",
    "State": "Ohio",
    "DirectURL": "promedica-memorial-hospital-radiology"
  },
  {
    "id": 178,
    "Latitude": "41.678248",
    "Longitude": "-83.59655719999999",
    "Address": "2150 W. Central Ave 3rd fl.",
    "ZipCode": "43606",
    "City": "Toledo",
    "State": "Ohio",
    "DirectURL": "promedica-360health-toledo"
  },
  {
    "id": 179,
    "Latitude": "41.2986899",
    "Longitude": "-84.3767112",
    "Address": "1200 Ralston Ave. ",
    "ZipCode": "43512",
    "City": "Defiance",
    "State": "Ohio",
    "DirectURL": "promedica-pain-management-defiance"
  },
  {
    "id": 181,
    "Latitude": "41.1628266",
    "Longitude": "-83.4242445",
    "Address": "ProMedica Fostoria Community Hospita 501 Van Buren St.",
    "ZipCode": "44830",
    "City": "Fostoria",
    "State": "Ohio",
    "DirectURL": "promedica-pain-management-fostoria"
  },
  {
    "id": 182,
    "Latitude": "41.3395073",
    "Longitude": "-83.1349326",
    "Address": "715 S. Taft Ave. ",
    "ZipCode": "43420",
    "City": "Fremont",
    "State": "Ohio",
    "DirectURL": "promedica-pain-management-fremont"
  },
  {
    "id": 184,
    "Latitude": "41.6214328",
    "Longitude": "-83.48073189999999",
    "Address": "2751 Bay Park Drive Suite 201",
    "ZipCode": "43616",
    "City": "Oregon",
    "State": "Ohio",
    "DirectURL": "promedica-physicians-assenmacher-orthopaedics-oregon"
  },
  {
    "id": 185,
    "Latitude": "41.6738116",
    "Longitude": "-83.67241129999999",
    "Address": "2865 N. Reynolds Road Suite 150",
    "ZipCode": "43615",
    "City": "Toledo",
    "State": "Ohio",
    "DirectURL": "promedica-physicians-assenmacher-orthopaedics-wildwood"
  },
  {
    "id": 186,
    "Latitude": "41.6735874",
    "Longitude": "-83.67225759999999",
    "Address": "2865 N. Reynolds Road Suite 160",
    "ZipCode": "43615",
    "City": "Toledo",
    "State": "Ohio",
    "DirectURL": "promedica-physicians-beer-orthopaedics"
  },
  {
    "id": 187,
    "Latitude": "41.5297956",
    "Longitude": "-83.63759499999999",
    "Address": "1601 Brigham Drive Suite 120",
    "ZipCode": "43551",
    "City": "Perrysburg",
    "State": "Ohio",
    "DirectURL": "promedica-physicians-karamali-and-cassavar-cardiology-perrysburg"
  },
  {
    "id": 188,
    "Latitude": "41.2998958",
    "Longitude": "-84.37445699999999",
    "Address": "1252 Ralston Ave. Suite 304",
    "ZipCode": "43512",
    "City": "Defiance",
    "State": "Ohio",
    "DirectURL": "promedica-physicians-karamali-and-cassavar-cardiology-defiance"
  },
  {
    "id": 189,
    "Latitude": "41.678248",
    "Longitude": "-83.59655719999999",
    "Address": "2150 W. Central Ave. ",
    "ZipCode": "43606",
    "City": "Toledo",
    "State": "Ohio",
    "DirectURL": "promedica-physicians-adult-medicine"
  },
  {
    "id": 190,
    "Latitude": "41.5298893",
    "Longitude": "-83.6375863",
    "Address": "1601 Brigham Drive Suite 150",
    "ZipCode": "43551",
    "City": "Perrysburg",
    "State": "Ohio",
    "DirectURL": "promedica-physicians-adult-neurology"
  },
  {
    "id": 193,
    "Latitude": "41.6901498",
    "Longitude": "-83.6364796",
    "Address": "3909 Woodley Road Suite 100",
    "ZipCode": "43606",
    "City": "Toledo",
    "State": "Ohio",
    "DirectURL": "promedica-physicians-alexis-medical-center"
  },
  {
    "id": 194,
    "Latitude": "41.577062",
    "Longitude": "-83.6882136",
    "Address": "660 Beaver Creek Circle Suite 110",
    "ZipCode": "43537",
    "City": "Maumee",
    "State": "Ohio",
    "DirectURL": "promedica-physicians-arrowhead-family-practice"
  },
  {
    "id": 195,
    "Latitude": "41.5770786",
    "Longitude": "-83.68824819999999",
    "Address": "660 Beaver Creek Circle Suite 100",
    "ZipCode": "43537",
    "City": "Maumee",
    "State": "Ohio",
    "DirectURL": "promedica-physicians-arrowhead-pediatrics"
  },
  {
    "id": 197,
    "Latitude": "41.53777669999999",
    "Longitude": "-84.13167109999999",
    "Address": "725 S. Shoop Ave. ",
    "ZipCode": "43567",
    "City": "Wauseon",
    "State": "Ohio",
    "DirectURL": "promedica-physicians-general-surgery-bariatrics-wauseon"
  },
  {
    "id": 198,
    "Latitude": "41.6214264",
    "Longitude": "-83.4810246",
    "Address": "2751 Bay Park Drive Suite 204",
    "ZipCode": "43616",
    "City": "Oregon",
    "State": "Ohio",
    "DirectURL": "promedica-physicians-bay-park-family-practice"
  },
  {
    "id": 199,
    "Latitude": "41.7342429",
    "Longitude": "-83.6235774",
    "Address": "3175 Smith Road ",
    "ZipCode": "48144",
    "City": "Lambertville",
    "State": "Michigan",
    "DirectURL": "promedica-physicians-family-medicine-lambertville"
  },
  {
    "id": 200,
    "Latitude": "41.6732086",
    "Longitude": "-83.7012312",
    "Address": "2940 N. McCord Road ",
    "ZipCode": "43615",
    "City": "Toledo",
    "State": "Ohio",
    "DirectURL": "promedica-physicians-cardiology-toledo"
  },
  {
    "id": 201,
    "Latitude": "41.5579697",
    "Longitude": "-83.67706559999999",
    "Address": "5705 Monclova Road Suite 202",
    "ZipCode": "43537",
    "City": "Maumee",
    "State": "Ohio",
    "DirectURL": "promedica-physicians-cardiology-maumee"
  },
  {
    "id": 202,
    "Latitude": "41.96554400000001",
    "Longitude": "-84.007532",
    "Address": "ProMedica Charles and Virginia Hickman Hospital 5640 N. Adrian Hwy. Suite A",
    "ZipCode": "49221",
    "City": "Adrian",
    "State": "Michigan",
    "DirectURL": "promedica-physicians-cardiology-adrian"
  },
  {
    "id": 203,
    "Latitude": "41.3774553",
    "Longitude": "-83.6682536",
    "Address": "1037 Conneaut St. Suite 202",
    "ZipCode": "43402",
    "City": "Bowling Green",
    "State": "Ohio",
    "DirectURL": "promedica-physicians-cardiology-bowling-green"
  },
  {
    "id": 204,
    "Latitude": "41.156998",
    "Longitude": "-83.41687019999999",
    "Address": "Specialty Clinic 501 Van Buren St.",
    "ZipCode": "44830",
    "City": "Fostoria",
    "State": "Ohio",
    "DirectURL": "promedica-physicians-cardiology-fostoria"
  },
  {
    "id": 205,
    "Latitude": "41.3395073",
    "Longitude": "-83.1349326",
    "Address": "715 S. Taft Ave. Suite 1",
    "ZipCode": "43420",
    "City": "Fremont",
    "State": "Ohio",
    "DirectURL": "promedica-physicians-cardiology-fremont"
  },
  {
    "id": 208,
    "Latitude": "41.411293",
    "Longitude": "-84.08749880000001",
    "Address": "1600 E. Riverview Ave. ",
    "ZipCode": "43545",
    "City": "Napoleon",
    "State": "Ohio",
    "DirectURL": "promedica-physicians-cardiology-napoleon"
  },
  {
    "id": 210,
    "Latitude": "41.6214264",
    "Longitude": "-83.4810246",
    "Address": "2751 Bay Park Drive Suite 305",
    "ZipCode": "43616",
    "City": "Oregon",
    "State": "Ohio",
    "DirectURL": "promedica-physicians-cardiology-bay-park"
  },
  {
    "id": 211,
    "Latitude": "41.4996158",
    "Longitude": "-82.93607569999999",
    "Address": "615 Fulton St. ",
    "ZipCode": "43452",
    "City": "Port Clinton",
    "State": "Ohio",
    "DirectURL": "promedica-physicians-cardiology-port-clinton"
  },
  {
    "id": 213,
    "Latitude": "41.5385582",
    "Longitude": "-84.1349798",
    "Address": "734 S. Shoop Ave. Suite B",
    "ZipCode": "43567",
    "City": "Wauseon",
    "State": "Ohio",
    "DirectURL": "promedica-physicians-cardiology-wauseon"
  },
  {
    "id": 214,
    "Latitude": "41.9145603",
    "Longitude": "-84.048873",
    "Address": "777 Kimole Lane Grace Christman Building. Suite 220",
    "ZipCode": "49221",
    "City": "Adrian",
    "State": "Michigan",
    "DirectURL": "promedica-physicians-silverman-cardiology"
  },
  {
    "id": 218,
    "Latitude": "41.3000074",
    "Longitude": "-84.3747391",
    "Address": "1250 Ralston Ave. Suite 202",
    "ZipCode": "43512",
    "City": "Defiance",
    "State": "Ohio",
    "DirectURL": "promedica-physicians-defiance-internal-medicine"
  },
  {
    "id": 219,
    "Latitude": "41.2998958",
    "Longitude": "-84.37445699999999",
    "Address": "1252 Ralston Ave. Suite 302",
    "ZipCode": "43512",
    "City": "Defiance",
    "State": "Ohio",
    "DirectURL": "promedica-physicians-defiance-orthopaedic-center"
  },
  {
    "id": 220,
    "Latitude": "41.2998958",
    "Longitude": "-84.37445699999999",
    "Address": "1252 Ralston Ave. Suite 400",
    "ZipCode": "43512",
    "City": "Defiance",
    "State": "Ohio",
    "DirectURL": "promedica-physicians-defiance-regional-ophthalmology"
  },
  {
    "id": 222,
    "Latitude": "41.7114673",
    "Longitude": "-83.6763764",
    "Address": "5700 Monroe Street Suite 310",
    "ZipCode": "43560",
    "City": "Sylvania",
    "State": "Ohio",
    "DirectURL": "promedica-physicians-ear-nose-and-throat-sylvania"
  },
  {
    "id": 225,
    "Latitude": "41.5298893",
    "Longitude": "-83.6375863",
    "Address": "1601 Brigham Drive Suite 250",
    "ZipCode": "43551",
    "City": "Perrysburg",
    "State": "Ohio",
    "DirectURL": "promedica-physicians-ear-nose-and-throat-perrysburg"
  },
  {
    "id": 226,
    "Latitude": "41.9145694",
    "Longitude": "-84.0488352",
    "Address": "777 Kimole Lane Suite 240",
    "ZipCode": "49221",
    "City": "Adrian",
    "State": "Michigan",
    "DirectURL": "promedica-physicians-ear-nose-and-throat-adrian"
  },
  {
    "id": 227,
    "Latitude": "41.9920267",
    "Longitude": "-83.94178719999999",
    "Address": "200 E. Russell Road Suite C",
    "ZipCode": "49286",
    "City": "Tecumseh",
    "State": "Michigan",
    "DirectURL": "promedica-physicians-ear-nose-and-throat-tecumseh"
  },
  {
    "id": 229,
    "Latitude": "41.2998958",
    "Longitude": "-84.37445699999999",
    "Address": "1252 Ralston Ave. MOB 2. Suite 402",
    "ZipCode": "43512",
    "City": "Defiance",
    "State": "Ohio",
    "DirectURL": "promedica-physicians-ear-nose-and-throat-defiance"
  },
  {
    "id": 231,
    "Latitude": "41.9324865",
    "Longitude": "-83.38872649999999",
    "Address": "1180 N. Monroe St. ",
    "ZipCode": "48162",
    "City": "Monroe",
    "State": "Michigan",
    "DirectURL": "promedica-physicians-eye-care-monroe"
  },
  {
    "id": 234,
    "Latitude": "41.7114196",
    "Longitude": "-83.6765269",
    "Address": "5700 Monroe St. Suite 211",
    "ZipCode": "43560",
    "City": "Sylvania",
    "State": "Ohio",
    "DirectURL": "promedica-physicians-eye-care-sylvania"
  },
  {
    "id": 237,
    "Latitude": "41.340262",
    "Longitude": "-83.13677439999999",
    "Address": "605 Third Ave. Suite D",
    "ZipCode": "43420",
    "City": "Fremont",
    "State": "Ohio",
    "DirectURL": "promedica-physicians-family-medicine-fremont-1"
  },
  {
    "id": 238,
    "Latitude": "41.2987493",
    "Longitude": "-84.3777989",
    "Address": "1250 Ralston Ave. Suite 104",
    "ZipCode": "43512",
    "City": "Defiance",
    "State": "Ohio",
    "DirectURL": "promedica-physicians-defiance-family-medicine"
  },
  {
    "id": 240,
    "Latitude": "41.7127658",
    "Longitude": "-83.8989363",
    "Address": "1990 County Road U ",
    "ZipCode": "43540",
    "City": "Metamora",
    "State": "Ohio",
    "DirectURL": "promedica-physicians-family-medicine-metamora"
  },
  {
    "id": 241,
    "Latitude": "41.7114049",
    "Longitude": "-83.6763172",
    "Address": "5700 Monroe Street Suite 206",
    "ZipCode": "43560",
    "City": "Sylvania",
    "State": "Ohio",
    "DirectURL": "promedica-physicians-family-practice-of-toledo"
  },
  {
    "id": 242,
    "Latitude": "41.3002029",
    "Longitude": "-84.3745218",
    "Address": "1250 Ralston Ave. Suite 204",
    "ZipCode": "43512",
    "City": "Defiance",
    "State": "Ohio",
    "DirectURL": "promedica-physicians-general-surgery-defiance"
  },
  {
    "id": 245,
    "Latitude": "41.5900482",
    "Longitude": "-83.5684258",
    "Address": "1215 Grassy Lane ",
    "ZipCode": "43460",
    "City": "Rossford",
    "State": "Ohio",
    "DirectURL": "promedica-physicians-family-medicine-rossford"
  },
  {
    "id": 246,
    "Latitude": "41.3395073",
    "Longitude": "-83.1349326",
    "Address": "715 S. Taft Ave. ",
    "ZipCode": "43420",
    "City": "Fremont",
    "State": "Ohio",
    "DirectURL": "promedica-physicians-infectious-disease-and-pediatrics"
  },
  {
    "id": 247,
    "Latitude": "41.5770786",
    "Longitude": "-83.68824819999999",
    "Address": "660 Beaver Creek Circle Suite 200",
    "ZipCode": "43537",
    "City": "Maumee",
    "State": "Ohio",
    "DirectURL": "promedica-physicians-obstetrics-gynecology-maumee"
  },
  {
    "id": 248,
    "Latitude": "41.6800973",
    "Longitude": "-83.59575649999999",
    "Address": "2130 W. Central Ave. Suites 101; 102; 103",
    "ZipCode": "43606",
    "City": "Toledo",
    "State": "Ohio",
    "DirectURL": "promedica-physicians-neurology-toledo"
  },
  {
    "id": 250,
    "Latitude": "41.3389909",
    "Longitude": "-83.13673399999999",
    "Address": "1922 Glen Springs Drive ",
    "ZipCode": "43420",
    "City": "Fremont",
    "State": "Ohio",
    "DirectURL": "promedica-physicians-obstetrics-gynecology-fremont"
  },
  {
    "id": 251,
    "Latitude": "41.5135338",
    "Longitude": "-82.9102362",
    "Address": "1854 E. Perry St. ",
    "ZipCode": "43452",
    "City": "Port Clinton",
    "State": "Ohio",
    "DirectURL": "promedica-physicians-obstetrics-gynecology-port-clinton"
  },
  {
    "id": 253,
    "Latitude": "41.3002029",
    "Longitude": "-84.3745218",
    "Address": "1250 Ralston Ave. Suite 205",
    "ZipCode": "43512",
    "City": "Defiance",
    "State": "Ohio",
    "DirectURL": "promedica-physicians-obstetrics-gynecology-defiance"
  },
  {
    "id": 254,
    "Latitude": "41.7103358",
    "Longitude": "-83.6943191",
    "Address": "5308 Harroun Road Suite 150",
    "ZipCode": "43560",
    "City": "Sylvania",
    "State": "Ohio",
    "DirectURL": "promedica-physicians-obstetrics-i-gynecology-sylvania"
  },
  {
    "id": 255,
    "Latitude": "41.5298893",
    "Longitude": "-83.6375863",
    "Address": "1601 Brigham Drive Suite 250A",
    "ZipCode": "43551",
    "City": "Perrysburg",
    "State": "Ohio",
    "DirectURL": "promedica-physicians-obstetrics-gynecology-perrysburg"
  },
  {
    "id": 256,
    "Latitude": "41.7104413",
    "Longitude": "-83.67562699999999",
    "Address": "5700 Monroe Street Suite 303",
    "ZipCode": "43560",
    "City": "Sylvania",
    "State": "Ohio",
    "DirectURL": "promedica-physicians-sunforest-obstetrics-gynecology"
  },
  {
    "id": 259,
    "Latitude": "41.6214328",
    "Longitude": "-83.48073189999999",
    "Address": "2751 Bay Park Drive Suite 201",
    "ZipCode": "43616",
    "City": "Oregon",
    "State": "Ohio",
    "DirectURL": "promedica-physicians-physical-medicine-rehabilitation-oregon"
  },
  {
    "id": 260,
    "Latitude": "41.67326449999999",
    "Longitude": "-83.5952066",
    "Address": "2121 Hughes Drive Suite 750",
    "ZipCode": "43606",
    "City": "Toledo",
    "State": "Ohio",
    "DirectURL": "promedica-physicians-pediatric-cardiology-toledo"
  },
  {
    "id": 262,
    "Latitude": "40.7355618",
    "Longitude": "-84.0858791",
    "Address": "1001 Bellafontaine Ave. ",
    "ZipCode": "45804",
    "City": "Lima",
    "State": "Ohio",
    "DirectURL": "promedica-physicians-pediatric-cardiology-lima"
  },
  {
    "id": 263,
    "Latitude": "41.4465268",
    "Longitude": "-82.7108554",
    "Address": "1111 Hayes Ave. ",
    "ZipCode": "44870",
    "City": "Sandusky",
    "State": "Ohio",
    "DirectURL": "promedica-physicians-pediatric-cardiology-sandusky"
  },
  {
    "id": 265,
    "Latitude": "41.6748",
    "Longitude": "-83.595376",
    "Address": "2121 Hughes Drive Suite 220",
    "ZipCode": "43606",
    "City": "Toledo",
    "State": "Ohio",
    "DirectURL": "promedica-physicians-pediatric-gastroenterology-toledo"
  },
  {
    "id": 266,
    "Latitude": "40.7355618",
    "Longitude": "-84.0858791",
    "Address": "1001 Bellafontaine Ave. ",
    "ZipCode": "45804",
    "City": "Lima",
    "State": "Ohio",
    "DirectURL": "promedica-physicians-pediatric-gastroenterology-lima"
  },
  {
    "id": 267,
    "Latitude": "41.92557",
    "Longitude": "-83.3869108",
    "Address": "730 N. Macomb St. Suite 300",
    "ZipCode": "48162",
    "City": "Monroe",
    "State": "Michigan",
    "DirectURL": "promedica-physicians-pediatric-gastroenterology-monroe"
  },
  {
    "id": 268,
    "Latitude": "41.6748",
    "Longitude": "-83.595376",
    "Address": "2121 Hughes Drive Suite 980",
    "ZipCode": "43606",
    "City": "Toledo",
    "State": "Ohio",
    "DirectURL": "promedica-physicians-pediatric-orthopaedic-surgery"
  },
  {
    "id": 270,
    "Latitude": "41.2998958",
    "Longitude": "-84.37445699999999",
    "Address": "ProMedica Defiance Regional Hospital 1252 Ralston Ave. Suite 402",
    "ZipCode": "43512",
    "City": "Defiance",
    "State": "Ohio",
    "DirectURL": "promedica-physicians-pediatric-pulmonary-and-sleep-medicine-and-cystic-fibrosis-defiance"
  },
  {
    "id": 272,
    "Latitude": "41.6342787",
    "Longitude": "-83.4724518",
    "Address": "3156 Dustin Road Suite 203",
    "ZipCode": "43616",
    "City": "Oregon",
    "State": "Ohio",
    "DirectURL": "promedica-physicians-pediatrics-sam-m-abaza-md"
  },
  {
    "id": 273,
    "Latitude": "41.5298893",
    "Longitude": "-83.6375863",
    "Address": "1601 Brigham Drive Suite 200",
    "ZipCode": "43551",
    "City": "Perrysburg",
    "State": "Ohio",
    "DirectURL": "promedica-physicians-perrysburg-pediatrics"
  },
  {
    "id": 275,
    "Latitude": "41.7114196",
    "Longitude": "-83.67627899999999",
    "Address": "5700 Monroe Street Suite 203",
    "ZipCode": "43560",
    "City": "Sylvania",
    "State": "Ohio",
    "DirectURL": "promedica-physicians-port-sylvania-family-practice"
  },
  {
    "id": 276,
    "Latitude": "41.71235619999999",
    "Longitude": "-83.6790958",
    "Address": "5800 Monroe St. Suite G",
    "ZipCode": "43560",
    "City": "Sylvania",
    "State": "Ohio",
    "DirectURL": "promedica-physicians-behavioral-health-sylvania"
  },
  {
    "id": 277,
    "Latitude": "41.711526",
    "Longitude": "-83.67620869999999",
    "Address": "5700 Monroe Street Suite 308",
    "ZipCode": "43560",
    "City": "Sylvania",
    "State": "Ohio",
    "DirectURL": "promedica-physicians-pulmonary-sleep-medicine-toledo"
  },
  {
    "id": 278,
    "Latitude": "41.9145527",
    "Longitude": "-84.04884199999999",
    "Address": "777 Kimole Lane Suite 100",
    "ZipCode": "49221",
    "City": "Adrian",
    "State": "Michigan",
    "DirectURL": "promedica-physicians-pulmonary-sleep-medicine-adrian"
  },
  {
    "id": 279,
    "Latitude": "41.2998958",
    "Longitude": "-84.37445699999999",
    "Address": "1252 Ralston Ave. Suite 402",
    "ZipCode": "43512",
    "City": "Defiance",
    "State": "Ohio",
    "DirectURL": "promedica-physicians-pulmonary-sleep-medicine-defiance"
  },
  {
    "id": 281,
    "Latitude": "41.5298893",
    "Longitude": "-83.6375863",
    "Address": "1601 Brigham Drive Suite 250",
    "ZipCode": "43551",
    "City": "Perrysburg",
    "State": "Ohio",
    "DirectURL": "promedica-physicians-river-road-family-medicine"
  },
  {
    "id": 283,
    "Latitude": "41.710221",
    "Longitude": "-83.69157799999999",
    "Address": "5300 Harroun Road Suite 155",
    "ZipCode": "43560",
    "City": "Sylvania",
    "State": "Ohio",
    "DirectURL": "promedica-physicians-sylvania-adult-pediatric-medicine"
  },
  {
    "id": 287,
    "Latitude": "41.6901774",
    "Longitude": "-83.63655659999999",
    "Address": "3909 Woodley Road Suite 600",
    "ZipCode": "43606",
    "City": "Toledo",
    "State": "Ohio",
    "DirectURL": "promedica-physicians-west-central-medical-group"
  },
  {
    "id": 288,
    "Latitude": "41.6748",
    "Longitude": "-83.595376",
    "Address": "2109 Hughes Drive Suite 220",
    "ZipCode": "43606",
    "City": "Toledo",
    "State": "Ohio",
    "DirectURL": "promedica-physicians-general-surgery-i-trauma"
  },
  {
    "id": 289,
    "Latitude": "41.6214264",
    "Longitude": "-83.4810246",
    "Address": "2751 Bay Park Drive Suite 303",
    "ZipCode": "43616",
    "City": "Oregon",
    "State": "Ohio",
    "DirectURL": "promedica-physicians-general-surgery-oregon"
  },
  {
    "id": 290,
    "Latitude": "41.7114049",
    "Longitude": "-83.6763172",
    "Address": "5700 Monroe St. Suite 201",
    "ZipCode": "43560",
    "City": "Sylvania",
    "State": "Ohio",
    "DirectURL": "promedica-physicians-westgate-family-medicine"
  },
  {
    "id": 291,
    "Latitude": "41.6735645",
    "Longitude": "-83.67225759999999",
    "Address": "2865 N. Reynolds Road Suite 170",
    "ZipCode": "43615",
    "City": "Toledo",
    "State": "Ohio",
    "DirectURL": "promedica-physicians-wildwood-family-practice"
  },
  {
    "id": 292,
    "Latitude": "41.7104603",
    "Longitude": "-83.67560589999999",
    "Address": "5700 Monroe Street Suite 209",
    "ZipCode": "43560",
    "City": "Sylvania",
    "State": "Ohio",
    "DirectURL": "promedica-physicians-internal-medicine-woodley"
  },
  {
    "id": 294,
    "Latitude": "41.5770786",
    "Longitude": "-83.68824819999999",
    "Address": "660 Beaver Creek Circle Suite 120",
    "ZipCode": "43537",
    "City": "Maumee",
    "State": "Ohio",
    "DirectURL": "promedica-radiology-5"
  },
  {
    "id": 295,
    "Latitude": "41.678248",
    "Longitude": "-83.59655719999999",
    "Address": "2150 W. Central Ave. Room H",
    "ZipCode": "43606",
    "City": "Toledo",
    "State": "Ohio",
    "DirectURL": "promedica-radiology-6"
  },
  {
    "id": 298,
    "Latitude": "41.5298893",
    "Longitude": "-83.6375863",
    "Address": "1601 Brigham Drive Suite 180",
    "ZipCode": "43551",
    "City": "Perrysburg",
    "State": "Ohio",
    "DirectURL": "promedica-radiology-levis-commons"
  },
  {
    "id": 307,
    "Latitude": "41.2986899",
    "Longitude": "-84.3767112",
    "Address": "1200 Ralston Ave. ",
    "ZipCode": "43512",
    "City": "Defiance",
    "State": "Ohio",
    "DirectURL": "promedica-sleep-center-defiance"
  },
  {
    "id": 308,
    "Latitude": "41.1628266",
    "Longitude": "-83.4242445",
    "Address": "501 Van Buren St. ",
    "ZipCode": "44830",
    "City": "Fostoria",
    "State": "Ohio",
    "DirectURL": "promedica-sleep-center-fostoria"
  },
  {
    "id": 309,
    "Latitude": "41.3391765",
    "Longitude": "-83.1329846",
    "Address": "710 Cleveland Ave. ",
    "ZipCode": "43420",
    "City": "Fremont",
    "State": "Ohio",
    "DirectURL": "promedica-sleep-center-fremont"
  },
  {
    "id": 310,
    "Latitude": "41.6207872",
    "Longitude": "-83.4799506",
    "Address": "2801 Bay Park Drive ",
    "ZipCode": "43616",
    "City": "Oregon",
    "State": "Ohio",
    "DirectURL": "promedica-sleep-center-oregon"
  },
  {
    "id": 311,
    "Latitude": "41.7093178",
    "Longitude": "-83.6904552",
    "Address": "5200 Harroun Road ",
    "ZipCode": "43560",
    "City": "Sylvania",
    "State": "Ohio",
    "DirectURL": "promedica-sleep-center-sylvania"
  },
  {
    "id": 319,
    "Latitude": "41.6741917",
    "Longitude": "-83.5948238",
    "Address": "2109 Hughes Drive Jobst Tower. 1st Floor",
    "ZipCode": "43606",
    "City": "Toledo",
    "State": "Ohio",
    "DirectURL": "promedica-structural-heart-clinic"
  },
  {
    "id": 320,
    "Latitude": "41.3391765",
    "Longitude": "-83.1329846",
    "Address": "710 Cleveland Avenue ",
    "ZipCode": "43420",
    "City": "Fremont",
    "State": "Ohio",
    "DirectURL": "promedica-eap"
  },
  {
    "id": 321,
    "Latitude": "41.6741917",
    "Longitude": "-83.5948238",
    "Address": "2109 Hughes Drive 1st Floor",
    "ZipCode": "43606",
    "City": "Toledo",
    "State": "Ohio",
    "DirectURL": "promedica-toledo-russell-j-ebeid-children-s-hospital-s-laboratory"
  },
  {
    "id": 322,
    "Latitude": "41.6730403",
    "Longitude": "-83.5949906",
    "Address": "2142 N. Cove Blvd. 2nd Floor",
    "ZipCode": "43606",
    "City": "Toledo",
    "State": "Ohio",
    "DirectURL": "promedica-toledo-hospital-radiology"
  },
  {
    "id": 324,
    "Latitude": "41.6730403",
    "Longitude": "-83.5949906",
    "Address": "2142 N. Cove Blvd. ",
    "ZipCode": "43606",
    "City": "Toledo",
    "State": "Ohio",
    "DirectURL": "promedica-physicians-palliative-medicine"
  },
  {
    "id": 326,
    "Latitude": "41.9654225",
    "Longitude": "-84.00448829999999",
    "Address": "5660 N. Adrian Highway ",
    "ZipCode": "49221",
    "City": "Adrian",
    "State": "Michigan",
    "DirectURL": "promedica-total-rehab-adrian"
  },
  {
    "id": 327,
    "Latitude": "41.9579609",
    "Longitude": "-83.67560659999999",
    "Address": "100 Powell Dr. Suite 3",
    "ZipCode": "48131",
    "City": "Dundee",
    "State": "Michigan",
    "DirectURL": "promedica-total-rehab-dundee"
  },
  {
    "id": 329,
    "Latitude": "41.7654399",
    "Longitude": "-83.5960908",
    "Address": "2000 W. Dean Road ",
    "ZipCode": "48182",
    "City": "Temperance",
    "State": "Michigan",
    "DirectURL": "promedica-total-rehab-temperance"
  },
  {
    "id": 330,
    "Latitude": "41.1510983",
    "Longitude": "-83.42307939999999",
    "Address": "455 W. 4th St. Suite 010 ",
    "ZipCode": "44830",
    "City": "Fostoria",
    "State": "Ohio",
    "DirectURL": "promedica-total-rehab-fostoria"
  },
  {
    "id": 331,
    "Latitude": "42.01239229999999",
    "Longitude": "-84.1902015",
    "Address": "400 N. Main St. ",
    "ZipCode": "49265",
    "City": "Onsted",
    "State": "Michigan",
    "DirectURL": "promedica-total-rehab-onsted"
  },
  {
    "id": 333,
    "Latitude": "41.7033673",
    "Longitude": "-83.69473219999999",
    "Address": "4848 Holland-Sylvania Road Suite 202",
    "ZipCode": "43560",
    "City": "Sylvania",
    "State": "Ohio",
    "DirectURL": "promedica-total-rehab-sylvania"
  },
  {
    "id": 334,
    "Latitude": "41.5772392",
    "Longitude": "-83.68773729999999",
    "Address": "660 Beaver Creek Circle Suite 210",
    "ZipCode": "43537",
    "City": "Maumee",
    "State": "Ohio",
    "DirectURL": "promedica-total-rehab-maumee"
  },
  {
    "id": 335,
    "Latitude": "41.6214264",
    "Longitude": "-83.4810246",
    "Address": "2751 Bay Park Drive ",
    "ZipCode": "43616",
    "City": "Oregon",
    "State": "Ohio",
    "DirectURL": "promedica-total-rehab-oregon"
  },
  {
    "id": 336,
    "Latitude": "41.678248",
    "Longitude": "-83.59655719999999",
    "Address": "2150 W. Central Ave. Third Floor",
    "ZipCode": "43606",
    "City": "Toledo",
    "State": "Ohio",
    "DirectURL": "promedica-total-rehab-toledo"
  },
  {
    "id": 337,
    "Latitude": "41.2998958",
    "Longitude": "-84.37445699999999",
    "Address": "1252 Ralston Ave. Suite 301",
    "ZipCode": "43512",
    "City": "Defiance",
    "State": "Ohio",
    "DirectURL": "promedica-total-rehab-defiance"
  },
  {
    "id": 341,
    "Latitude": "41.38364199999999",
    "Longitude": "-83.320458",
    "Address": "116 S. Main St. ",
    "ZipCode": "43430",
    "City": "Gibsonburg",
    "State": "Ohio",
    "DirectURL": "promedica-total-rehab-gibsonburg"
  },
  {
    "id": 342,
    "Latitude": "41.3126964",
    "Longitude": "-82.9818662",
    "Address": "509 W. McPherson Highway ",
    "ZipCode": "43410",
    "City": "Clyde",
    "State": "Ohio",
    "DirectURL": "promedica-total-rehab-clyde"
  },
  {
    "id": 343,
    "Latitude": "41.3391765",
    "Longitude": "-83.1329846",
    "Address": "710 Cleveland Ave. ",
    "ZipCode": "43420",
    "City": "Fremont",
    "State": "Ohio",
    "DirectURL": "promedica-total-rehab-fremont"
  },
  {
    "id": 344,
    "Latitude": "41.5298893",
    "Longitude": "-83.6375863",
    "Address": "1601 Brigham Drive Levis Commons. Suite 100",
    "ZipCode": "43551",
    "City": "Perrysburg",
    "State": "Ohio",
    "DirectURL": "promedica-total-rehab-levis-commons"
  },
  {
    "id": 345,
    "Latitude": "41.61240919999999",
    "Longitude": "-83.7050512",
    "Address": "6855 Springvalley Drive #155",
    "ZipCode": "43528",
    "City": "Holland",
    "State": "Ohio",
    "DirectURL": "promedica-total-rehab-holland"
  },
  {
    "id": 346,
    "Latitude": "41.396061",
    "Longitude": "-83.64993609999999",
    "Address": "1180 N. Main St. Suites 1-2",
    "ZipCode": "43402",
    "City": "Bowling Green",
    "State": "Ohio",
    "DirectURL": "promedica-total-rehab-bowling-green"
  },
  {
    "id": 355,
    "Latitude": "41.7112838",
    "Longitude": "-83.6764257",
    "Address": "5700 Monroe St. Suite 309 ",
    "ZipCode": "43560",
    "City": "Sylvania",
    "State": "Ohio",
    "DirectURL": "jobst-vascular-institute-vein-care"
  },
  {
    "id": 359,
    "Latitude": "41.6737363",
    "Longitude": "-83.67370460000001",
    "Address": "2901 N. Reynolds Road Entrance D",
    "ZipCode": "43615",
    "City": "Toledo",
    "State": "Ohio",
    "DirectURL": "promedica-wildwood-orthopaedic-and-spine-hospital-radiology"
  },
  {
    "id": 360,
    "Latitude": "41.678248",
    "Longitude": "-83.59655719999999",
    "Address": "2150 W. Central Ave. ",
    "ZipCode": "43606",
    "City": "Toledo",
    "State": "Ohio",
    "DirectURL": "promedica-women-s-services"
  },
  {
    "id": 374,
    "Latitude": "42.0123749",
    "Longitude": "-84.19024979999999",
    "Address": "400 N. Main St. Suite A",
    "ZipCode": "49265",
    "City": "Onsted",
    "State": "Michigan",
    "DirectURL": "promedica-physicians-family-medicine-onsted"
  },
  {
    "id": 375,
    "Latitude": "42.0010145",
    "Longitude": "-83.9373341",
    "Address": "501 E. Cummins St. ",
    "ZipCode": "49286",
    "City": "Tecumseh",
    "State": "Michigan",
    "DirectURL": "promedica-physicians-tecumseh-family-medicine"
  },
  {
    "id": 380,
    "Latitude": "41.6782979",
    "Longitude": "-83.62038699999999",
    "Address": "3142 W. Central Ave. ",
    "ZipCode": "43606",
    "City": "Toledo",
    "State": "Ohio",
    "DirectURL": "promedica-specialty-pharmacy"
  },
  {
    "id": 388,
    "Latitude": "41.8350684",
    "Longitude": "-83.8830356",
    "Address": "157 W. Brooke Lane ",
    "ZipCode": "49228",
    "City": "Blissfield",
    "State": "Michigan",
    "DirectURL": "promedica-physicians-internal-medicine-i-pediatrics-i-family-medicine"
  },
  {
    "id": 393,
    "Latitude": "41.6207872",
    "Longitude": "-83.4799506",
    "Address": "2801 Bay Park Drive ",
    "ZipCode": "43616",
    "City": "Oregon",
    "State": "Ohio",
    "DirectURL": "promedica-bay-park-hospital-surgery-center"
  },
  {
    "id": 396,
    "Latitude": "41.2986899",
    "Longitude": "-84.3767112",
    "Address": "1200 Ralston Ave. ",
    "ZipCode": "43512",
    "City": "Defiance",
    "State": "Ohio",
    "DirectURL": "promedica-defiance-regional-hospital-surgery-center"
  },
  {
    "id": 398,
    "Latitude": "41.7093178",
    "Longitude": "-83.6904552",
    "Address": "5200 Harroun Road ",
    "ZipCode": "43560",
    "City": "Sylvania",
    "State": "Ohio",
    "DirectURL": "promedica-flower-hospital-surgery-center"
  },
  {
    "id": 399,
    "Latitude": "41.1628266",
    "Longitude": "-83.4242445",
    "Address": "501 Van Buren St. ",
    "ZipCode": "44830",
    "City": "Fostoria",
    "State": "Ohio",
    "DirectURL": "promedica-fostoria-community-hospital-surgery-center"
  },
  {
    "id": 400,
    "Latitude": "41.3395073",
    "Longitude": "-83.1349326",
    "Address": "715 S. Taft Ave. ",
    "ZipCode": "43420",
    "City": "Fremont",
    "State": "Ohio",
    "DirectURL": "promedica-memorial-hospital-surgery-center"
  },
  {
    "id": 402,
    "Latitude": "41.6748",
    "Longitude": "-83.595376",
    "Address": "2121 Hughes Drive Suite 640",
    "ZipCode": "43606",
    "City": "Toledo",
    "State": "Ohio",
    "DirectURL": "cystic-fibrosis-center-of-northwest-ohio"
  },
  {
    "id": 406,
    "Latitude": "41.6730403",
    "Longitude": "-83.5949906",
    "Address": "2142 N. Cove Blvd. ",
    "ZipCode": "43606",
    "City": "Toledo",
    "State": "Ohio",
    "DirectURL": "promedica-toledo-hospital-surgery-center"
  },
  {
    "id": 407,
    "Latitude": "41.6730403",
    "Longitude": "-83.5949906",
    "Address": "2142 N. Cove Blvd. ",
    "ZipCode": "43606",
    "City": "Toledo",
    "State": "Ohio",
    "DirectURL": "promedica-russell-j-ebeid-children-s-hospital-surgery-center"
  },
  {
    "id": 408,
    "Latitude": "41.710221",
    "Longitude": "-83.69157799999999",
    "Address": "ProMedica Flower Hospital 5300 Harroun Road. Suite 010",
    "ZipCode": "43560",
    "City": "Sylvania",
    "State": "Ohio",
    "DirectURL": "promedica-hickman-cancer-center-sylvania"
  },
  {
    "id": 409,
    "Latitude": "41.9145694",
    "Longitude": "-84.0488352",
    "Address": "Grace Christman Medical Building 777 Kimole Lane. Suite 130",
    "ZipCode": "49221",
    "City": "Adrian",
    "State": "Michigan",
    "DirectURL": "promedica-hickman-cancer-center-adrian"
  },
  {
    "id": 410,
    "Latitude": "41.6787941",
    "Longitude": "-83.5927002",
    "Address": "ProMedica Russell J. Ebeid Childrens Hospital 1 ProMedica Parkway. Entrance B. Floor 4",
    "ZipCode": "43606",
    "City": "Toledo",
    "State": "Ohio",
    "DirectURL": "promedica-debbie-brass-children-s-cancer-center"
  },
  {
    "id": 411,
    "Latitude": "41.9397054",
    "Longitude": "-83.39604799999999",
    "Address": "800 Stewart Road ",
    "ZipCode": "48162",
    "City": "Monroe",
    "State": "Michigan",
    "DirectURL": "promedica-monroe-cancer-center"
  },
  {
    "id": 416,
    "Latitude": "41.6214264",
    "Longitude": "-83.4810246",
    "Address": "2751 Bay Park Drive Suite 130",
    "ZipCode": "43616",
    "City": "Oregon",
    "State": "Ohio",
    "DirectURL": "promedica-heart-failure-clinic-oregon"
  },
  {
    "id": 417,
    "Latitude": "41.7093178",
    "Longitude": "-83.6904552",
    "Address": "5200 Harroun Road ",
    "ZipCode": "43560",
    "City": "Sylvania",
    "State": "Ohio",
    "DirectURL": "promedica-flower-hospital-radiology"
  },
  {
    "id": 418,
    "Latitude": "41.6214264",
    "Longitude": "-83.4810246",
    "Address": "2751 Bay Park Drive Suite 202",
    "ZipCode": "43616",
    "City": "Oregon",
    "State": "Ohio",
    "DirectURL": "promedica-physicians-oregon-pediatrics"
  },
  {
    "id": 421,
    "Latitude": "41.9114849",
    "Longitude": "-84.0469324",
    "Address": "755 High St. ",
    "ZipCode": "49221",
    "City": "Adrian",
    "State": "Michigan",
    "DirectURL": "promedica-physicians-internal-medicine-i-family-medicine-adrian"
  },
  {
    "id": 424,
    "Latitude": "41.34031909999999",
    "Longitude": "-83.15279750000001",
    "Address": "595 Bartson Rd. Ste. A",
    "ZipCode": "43420",
    "City": "Fremont",
    "State": "Ohio",
    "DirectURL": "promedica-physicians-ear-nose-and-throat-fremont"
  },
  {
    "id": 429,
    "Latitude": "41.916592",
    "Longitude": "-83.3934194",
    "Address": "214 E. Elm Ave. Suite 200",
    "ZipCode": "48162",
    "City": "Monroe",
    "State": "Michigan",
    "DirectURL": "promedica-physicians-orthopaedic-surgery-elm-ave"
  },
  {
    "id": 459,
    "Latitude": "41.7112838",
    "Longitude": "-83.6764257",
    "Address": "5700 Monroe St. Suite 102",
    "ZipCode": "43560",
    "City": "Sylvania",
    "State": "Ohio",
    "DirectURL": "promedica-endoscopy-center"
  },
  {
    "id": 461,
    "Latitude": "41.5569989",
    "Longitude": "-83.682211",
    "Address": "5901 Monclova Road ",
    "ZipCode": "43537",
    "City": "Maumee",
    "State": "Ohio",
    "DirectURL": "promedica-physicians-neurology-maumee"
  },
  {
    "id": 462,
    "Latitude": "41.7130498",
    "Longitude": "-83.6839555",
    "Address": "5855 Monroe St. ",
    "ZipCode": "43560",
    "City": "Sylvania",
    "State": "Ohio",
    "DirectURL": "promedica-physicians-palliative-care"
  },
  {
    "id": 475,
    "Latitude": "41.1628266",
    "Longitude": "-83.4242445",
    "Address": "501 Van Buren St. Suite 103",
    "ZipCode": "44830",
    "City": "Fostoria",
    "State": "Ohio",
    "DirectURL": "promedica-physicians-pulmonary-sleep-medicine-fostoria"
  },
  {
    "id": 481,
    "Latitude": "41.303143",
    "Longitude": "-82.9484726",
    "Address": "1076 McPherson Hwy. Suite 1",
    "ZipCode": "43410",
    "City": "Clyde",
    "State": "Ohio",
    "DirectURL": "promedica-physicians-obstetrics-gynecology-clyde"
  },
  {
    "id": 483,
    "Latitude": "41.2986899",
    "Longitude": "-84.3767112",
    "Address": "1200 Ralston Ave. ",
    "ZipCode": "43512",
    "City": "Defiance",
    "State": "Ohio",
    "DirectURL": "promedica-defiance-regional-hospital-radiology"
  },
  {
    "id": 484,
    "Latitude": "41.1628266",
    "Longitude": "-83.4242445",
    "Address": "501 Van Buren St. ",
    "ZipCode": "44830",
    "City": "Fostoria",
    "State": "Ohio",
    "DirectURL": "promedica-fostoria-community-hospital-radiology"
  },
  {
    "id": 486,
    "Latitude": "41.1510983",
    "Longitude": "-83.42307939999999",
    "Address": "455 W. Fourth St. ",
    "ZipCode": "44830",
    "City": "Fostoria",
    "State": "Ohio",
    "DirectURL": "promedica-medical-center"
  },
  {
    "id": 488,
    "Latitude": "41.6735368",
    "Longitude": "-83.67190939999999",
    "Address": "2865 N. Reynolds Road ",
    "ZipCode": null,
    "City": "Toledo",
    "State": "Ohio",
    "DirectURL": "promedica-total-rehab-sports-medicine"
  },
  {
    "id": 492,
    "Latitude": "41.9272767",
    "Longitude": "-83.38929689999999",
    "Address": "901 N. Macomb St. Suite 1",
    "ZipCode": "48162",
    "City": "Monroe",
    "State": "Michigan",
    "DirectURL": "promedica-360health-monroe"
  },
  {
    "id": 495,
    "Latitude": "41.7048175",
    "Longitude": "-83.66396779999999",
    "Address": "4888 Whiteford Road ",
    "ZipCode": "43623",
    "City": "Toledo",
    "State": "Ohio",
    "DirectURL": "promedica-physicians-podiatry-toledo"
  },
  {
    "id": 500,
    "Latitude": "41.297789",
    "Longitude": "-84.3798729",
    "Address": "1260 Ralson Ave. ",
    "ZipCode": "43512",
    "City": "Defiance",
    "State": "Ohio",
    "DirectURL": "kaitlyn-s-cottage"
  },
  {
    "id": 504,
    "Latitude": "41.3395073",
    "Longitude": "-83.1349326",
    "Address": "715 S. Taft Ave. ",
    "ZipCode": "43420",
    "City": "Fremont",
    "State": "Ohio",
    "DirectURL": "jobst-medication-therapy-management-fremont"
  },
  {
    "id": 505,
    "Latitude": "41.9205575",
    "Longitude": "-83.42078549999999",
    "Address": "1704 S. Custer Road ",
    "ZipCode": "48161",
    "City": "Monroe",
    "State": "Michigan",
    "DirectURL": "promedica-physicians-family-medicine-monroe"
  },
  {
    "id": 512,
    "Latitude": "41.9365583",
    "Longitude": "-83.3888831",
    "Address": "1420 N. Monroe St. ",
    "ZipCode": "48162",
    "City": "Monroe",
    "State": "Michigan",
    "DirectURL": "promedica-physicians-orthopaedic-surgery-monroe-st"
  },
  {
    "id": 534,
    "Latitude": "41.6800973",
    "Longitude": "-83.59575649999999",
    "Address": "2130 W. Central Ave. Suite 300",
    "ZipCode": "43606",
    "City": "Toledo",
    "State": "Ohio",
    "DirectURL": "consultants-in-laboratory-medicine"
  },
  {
    "id": 643,
    "Latitude": null,
    "Longitude": null,
    "Address": "2109 Hughes Drive #840",
    "ZipCode": null,
    "City": null,
    "State": "Ohio",
    "DirectURL": "promedica-stroke-network"
  },
  {
    "id": 651,
    "Latitude": "41.6214264",
    "Longitude": "-83.4810246",
    "Address": "2751 Bay Park Drive #300 ",
    "ZipCode": "43616",
    "City": "Oregon",
    "State": "Ohio",
    "DirectURL": "promedica-physicians-obstetrics-and-gynecology-oregon"
  },
  {
    "id": 652,
    "Latitude": "41.678248",
    "Longitude": "-83.59655719999999",
    "Address": "2150 W. Central Ave. ",
    "ZipCode": "43606",
    "City": "Toledo",
    "State": "Ohio",
    "DirectURL": "promedica-physicians-obstetrics-gynecology-toledo"
  },
  {
    "id": 749,
    "Latitude": "41.9145694",
    "Longitude": "-84.0488352",
    "Address": "777 Kimole Lane Suite 260",
    "ZipCode": "49221",
    "City": "Adrian",
    "State": "Michigan",
    "DirectURL": "promedica-physicians-jobst-vascular-adrian"
  },
  {
    "id": 750,
    "Latitude": "41.2986899",
    "Longitude": "-84.3767112",
    "Address": "1250 Ralston Ave.  Suite 106",
    "ZipCode": "43512",
    "City": "Defiance ",
    "State": "Ohio",
    "DirectURL": "promedica-physicians-jobst-vascular-defiance"
  },
  {
    "id": 751,
    "Latitude": "41.340326",
    "Longitude": "-83.1372157",
    "Address": "605 Third Ave. ",
    "ZipCode": "43420",
    "City": "Fremont",
    "State": "Ohio",
    "DirectURL": "promedica-physicians-jobst-vascular-fremont"
  },
  {
    "id": 753,
    "Latitude": "42.0020404",
    "Longitude": "-83.9370445",
    "Address": "500 E. Pottawatamie St. ",
    "ZipCode": "49286",
    "City": "Tecumseh",
    "State": "Michigan",
    "DirectURL": "promedica-physicians-jobst-vascular-tecumseh"
  },
  {
    "id": 754,
    "Latitude": "41.53777669999999",
    "Longitude": "-84.13167109999999",
    "Address": "725 S. Shoop Ave ",
    "ZipCode": "43567",
    "City": "Wauseon",
    "State": "Ohio",
    "DirectURL": "promedica-physicians-jobst-vascular-wauseon"
  },
  {
    "id": 772,
    "Latitude": "41.9255701",
    "Longitude": "-83.3869107",
    "Address": "730 N. Macomb St.  Suite 419",
    "ZipCode": "48162",
    "City": "Monroe",
    "State": "Michigan",
    "DirectURL": "promedica-physicians-jobst-vascular-monroe"
  },
  {
    "id": 843,
    "Latitude": "41.6735368",
    "Longitude": "-83.67190939999999",
    "Address": "2865 N. Reynolds Rd.  #A",
    "ZipCode": "43615",
    "City": "Toledo",
    "State": "Ohio",
    "DirectURL": "promedica-physicians-toledo-orthopaedic-and-spine-surgeons"
  },
  {
    "id": 868,
    "Latitude": "41.2886911",
    "Longitude": "-82.8823371",
    "Address": "1400 W. Main St. ",
    "ZipCode": "44811",
    "City": "Bellevue",
    "State": "Ohio",
    "DirectURL": "promedica-physicians-jobst-vascular-bellevue"
  },
  {
    "id": 870,
    "Latitude": "41.6358754",
    "Longitude": "-83.46893969999999",
    "Address": "3316 Navarre Ave. Suite F",
    "ZipCode": "43616",
    "City": "Oregon",
    "State": "Ohio",
    "DirectURL": "promedica-urgent-care-oregon"
  },
  {
    "id": 871,
    "Latitude": "41.5272206",
    "Longitude": "-83.63612139999999",
    "Address": "25950 N. Dixie Highway Suite 500",
    "ZipCode": "43551",
    "City": "Perrysburg",
    "State": "Ohio",
    "DirectURL": "promedica-urgent-care-perrysburg"
  },
  {
    "id": 876,
    "Latitude": "41.6343618",
    "Longitude": "-83.4822733",
    "Address": "1050 Isaac Street Drive #128",
    "ZipCode": "43616",
    "City": "Oregon",
    "State": "Ohio",
    "DirectURL": "promedica-physicians-allergy-and-immunology-oregon"
  },
  {
    "id": 900,
    "Latitude": "41.6735645",
    "Longitude": "-83.67225759999999",
    "Address": "2865 N. Reynolds Road Suite 170",
    "ZipCode": "43615",
    "City": "Toledo",
    "State": "Ohio",
    "DirectURL": "promedica-physicians-physical-medicine-and-rehabilitation"
  },
  {
    "id": 906,
    "Latitude": "41.3797949",
    "Longitude": "-83.1160572",
    "Address": "2390 Enterprise Drive ",
    "ZipCode": "43420",
    "City": "Fremont",
    "State": "Ohio",
    "DirectURL": "promedica-dorothy-l-kern-cancer-center"
  },
  {
    "id": 907,
    "Latitude": "41.8976543",
    "Longitude": "-84.0641476",
    "Address": "146 S. Charles St. ",
    "ZipCode": "49221",
    "City": "Adrian",
    "State": "Michigan",
    "DirectURL": "promedica-physicians-family-medicine-i-sports-medicine"
  },
  {
    "id": 911,
    "Latitude": "41.9205215",
    "Longitude": "-83.4149022",
    "Address": "407 S. Telegraph Road ",
    "ZipCode": "48161",
    "City": "Monroe",
    "State": "Michigan",
    "DirectURL": "promedica-total-rehab-monroe-1"
  },
  {
    "id": 913,
    "Latitude": "41.9255529",
    "Longitude": "-83.3887474",
    "Address": "718 N. Macomb  ",
    "ZipCode": "48162",
    "City": "Monroe",
    "State": "Michigan",
    "DirectURL": "promedica-total-rehab-monroe-regional-hospital"
  },
  {
    "id": 914,
    "Latitude": "41.1628266",
    "Longitude": "-83.4242445",
    "Address": "501 Van Buren Street  ",
    "ZipCode": "44830",
    "City": "Fostoria ",
    "State": "Ohio",
    "DirectURL": "cardiac-and-pulmonary-rehab-fostoria"
  },
  {
    "id": 921,
    "Latitude": "41.6800973",
    "Longitude": "-83.59575649999999",
    "Address": "2130 W. Central Ave. Suite 105",
    "ZipCode": "43606",
    "City": "Toledo",
    "State": "Ohio",
    "DirectURL": "promedica-physicians-neurosurgery-toledo"
  },
  {
    "id": 923,
    "Latitude": "41.6576142",
    "Longitude": "-83.5470978",
    "Address": "1806 Madison Ave. ",
    "ZipCode": "43604",
    "City": "Toledo",
    "State": "Ohio",
    "DirectURL": "market-on-the-green"
  },
  {
    "id": 925,
    "Latitude": "41.6748",
    "Longitude": "-83.595376",
    "Address": "2109 Hughes Drive Suite 400",
    "ZipCode": "43606",
    "City": "Toledo",
    "State": "Ohio",
    "DirectURL": "jobst-vascular-institute"
  },
  {
    "id": 926,
    "Latitude": "41.9255529",
    "Longitude": "-83.3887474",
    "Address": "718 North Macomb St. ",
    "ZipCode": "48162",
    "City": "Monroe",
    "State": "Michigan",
    "DirectURL": "promedica-monroe-regional-hospital-radiology"
  },
  {
    "id": 927,
    "Latitude": "41.6214264",
    "Longitude": "-83.4810246",
    "Address": "2751 Bay Park Dr.  Suite 110",
    "ZipCode": "43616",
    "City": "Oregon",
    "State": "Ohio",
    "DirectURL": "jobst-medication-therapy-management-oregon"
  },
  {
    "id": 931,
    "Latitude": "41.7114049",
    "Longitude": "-83.6763172",
    "Address": "5700 Monroe St. Suite 106",
    "ZipCode": "43560",
    "City": "Sylvania",
    "State": "Ohio",
    "DirectURL": "promedica-physicians-general-surgery"
  },
  {
    "id": 935,
    "Latitude": "41.7104413",
    "Longitude": "-83.67562699999999",
    "Address": "5700 Monroe St. Suite 207",
    "ZipCode": "43560",
    "City": "Sylvania",
    "State": "Ohio",
    "DirectURL": "promedica-physicians-internal-medicine-sylvania"
  },
  {
    "id": 939,
    "Latitude": "41.7104223",
    "Longitude": "-83.67564809999999",
    "Address": "5700 Monroe St. Suite 301",
    "ZipCode": "43560",
    "City": "Sylvania",
    "State": "Ohio",
    "DirectURL": "promedica-physicians-toledo-pediatrics"
  },
  {
    "id": 942,
    "Latitude": "41.7112838",
    "Longitude": "-83.6764257",
    "Address": "5700 Monroe St. Suite 101",
    "ZipCode": "43560",
    "City": "Sylvania",
    "State": "Ohio",
    "DirectURL": "promedica-physicians-general-surgery-bariatrics-sylvania"
  },
  {
    "id": 943,
    "Latitude": "41.7112838",
    "Longitude": "-83.6764257",
    "Address": "5700 Monroe St. Suite 309",
    "ZipCode": "43560",
    "City": "Sylvania",
    "State": "Ohio",
    "DirectURL": "promedica-physicians-jobst-vascular-sylvania-1"
  },
  {
    "id": 944,
    "Latitude": "41.7112838",
    "Longitude": "-83.6764257",
    "Address": "5700 Monroe St. Suite 109",
    "ZipCode": "43560",
    "City": "Sylvania",
    "State": "Ohio",
    "DirectURL": "promedica-imaging-1"
  },
  {
    "id": 945,
    "Latitude": "41.7117881",
    "Longitude": "-83.6766815",
    "Address": "5700 Monroe St. Suite 110",
    "ZipCode": "43560",
    "City": "Sylvania",
    "State": "Ohio",
    "DirectURL": "promedica-laboratories-health-and-wellness-center"
  },
  {
    "id": 948,
    "Latitude": "41.711526",
    "Longitude": "-83.67620869999999",
    "Address": "5700 Monroe St. Suite 113",
    "ZipCode": "43560",
    "City": "Sylvania",
    "State": "Ohio",
    "DirectURL": "promedica-optical"
  },
  {
    "id": 950,
    "Latitude": "41.7112838",
    "Longitude": "-83.6764257",
    "Address": "5700 Monroe St. Suite 108",
    "ZipCode": "43560",
    "City": "Sylvania",
    "State": "Ohio",
    "DirectURL": "promedica-women-s-imaging-center"
  },
  {
    "id": 952,
    "Latitude": "41.71064639999999",
    "Longitude": "-83.6777965",
    "Address": "5700 Monroe St. Suite 115",
    "ZipCode": "43560",
    "City": "Sylvania",
    "State": "Ohio",
    "DirectURL": "promedica-food-clinic-sylvania"
  },
  {
    "id": 953,
    "Latitude": "41.9274456",
    "Longitude": "-83.38953880000001",
    "Address": "901 N. Macomb St Suite 110",
    "ZipCode": "48162",
    "City": "Monroe",
    "State": "Michigan",
    "DirectURL": "promedica-pulmonary-clinic-monroe"
  },
  {
    "id": 958,
    "Latitude": "41.6470166",
    "Longitude": "-83.5354612",
    "Address": "One Owens Corning Parkway Suite B-2",
    "ZipCode": "43659",
    "City": "Toledo",
    "State": "Ohio",
    "DirectURL": "promedica-physicians-at-owens-corning"
  },
  {
    "id": 959,
    "Latitude": "41.6107267",
    "Longitude": "-83.5573356",
    "Address": "513 Superior ",
    "ZipCode": "43460",
    "City": "Rossford",
    "State": "Ohio",
    "DirectURL": "promedica-physicians-obstetrics-gynecology-rossford"
  },
  {
    "id": 962,
    "Latitude": "41.6116243",
    "Longitude": "-83.7013558",
    "Address": "6711 Airport Highway ",
    "ZipCode": "43528",
    "City": "Holland",
    "State": "Ohio",
    "DirectURL": "promedica-urgent-care-holland"
  },
  {
    "id": 964,
    "Latitude": "41.6741937",
    "Longitude": "-83.7050512",
    "Address": "6755 Central Ave  ",
    "ZipCode": "43617",
    "City": "Toledo",
    "State": "Ohio",
    "DirectURL": "promedica-urgent-care-toledo-central"
  },
  {
    "id": 967,
    "Latitude": "41.9579609",
    "Longitude": "-83.67560659999999",
    "Address": "100 Powell Drive ",
    "ZipCode": "48131",
    "City": "Dundee",
    "State": "Michigan",
    "DirectURL": "promedica-laboratories-dundee-westside-medical-building"
  },
  {
    "id": 968,
    "Latitude": "41.9356145",
    "Longitude": "-83.3886625",
    "Address": "55 Cole Road ",
    "ZipCode": "48162",
    "City": "Monroe",
    "State": "Michigan",
    "DirectURL": "promedica-laboratories-ahadi"
  },
  {
    "id": 969,
    "Latitude": "41.9169274",
    "Longitude": "-83.4019308",
    "Address": "219 W. Front Street ",
    "ZipCode": "48161",
    "City": "Monroe",
    "State": "Michigan",
    "DirectURL": "promedica-laboratories-kabir"
  },
  {
    "id": 971,
    "Latitude": "41.92557",
    "Longitude": "-83.3869108",
    "Address": "730 N. Macomb Street ",
    "ZipCode": "48162",
    "City": "Monroe",
    "State": "Michigan",
    "DirectURL": "promedica-laboratories-monroe-professional-office-building"
  },
  {
    "id": 973,
    "Latitude": "41.9274456",
    "Longitude": "-83.38953880000001",
    "Address": "901 N. Macomb Street. Ste. 102 ",
    "ZipCode": "48162",
    "City": "Monroe",
    "State": "Michigan",
    "DirectURL": "promedica-laboratories-monroe-diagnostic-center"
  },
  {
    "id": 974,
    "Latitude": "41.9301585",
    "Longitude": "-83.3898025",
    "Address": "1060 N. Monroe Street ",
    "ZipCode": "48162",
    "City": "Monroe",
    "State": "Michigan",
    "DirectURL": "promedica-laboratories-delisle-center"
  },
  {
    "id": 977,
    "Latitude": "41.991394",
    "Longitude": "-83.28998159999999",
    "Address": "7825 N. Dixie Highway ",
    "ZipCode": "48166",
    "City": "Newport",
    "State": "Michigan",
    "DirectURL": "promedica-laboratories-newport"
  },
  {
    "id": 983,
    "Latitude": "41.1510983",
    "Longitude": "-83.42307939999999",
    "Address": "455 W. Fourth Street ",
    "ZipCode": "44830",
    "City": "Fostoria",
    "State": "Ohio",
    "DirectURL": "promedica-laboratories-fostoria"
  },
  {
    "id": 984,
    "Latitude": "41.2986899",
    "Longitude": "-84.3767112",
    "Address": "1200 Ralston Ave ",
    "ZipCode": "43512",
    "City": "Defiance",
    "State": "Ohio",
    "DirectURL": "promedica-express-care-defiance"
  },
  {
    "id": 987,
    "Latitude": "41.2986899",
    "Longitude": "-84.3767112",
    "Address": "1200 Ralston Ave ",
    "ZipCode": "43512",
    "City": "Defiance",
    "State": "Ohio",
    "DirectURL": "promedica-total-rehab-defiance-1"
  },
  {
    "id": 989,
    "Latitude": "41.690861",
    "Longitude": "-83.63917499999999",
    "Address": "4041 W. Sylvania Ave. Suite 100",
    "ZipCode": "43623",
    "City": "Toledo",
    "State": "Ohio",
    "DirectURL": "promedica-total-rehab-pediatrics"
  },
  {
    "id": 991,
    "Latitude": "41.6730403",
    "Longitude": "-83.5949906",
    "Address": "2142 N. Cove Blvd. Jobst Tower Entrance",
    "ZipCode": "43606",
    "City": "Toledo",
    "State": "Ohio",
    "DirectURL": "promedica-pulmonary-copd-education-clinic-toledo"
  },
  {
    "id": 998,
    "Latitude": "41.710221",
    "Longitude": "-83.69157799999999",
    "Address": "5300 Harroun Road Suite 118",
    "ZipCode": "43560",
    "City": "Sylvania",
    "State": "Ohio",
    "DirectURL": "promedica-physicians-orthopaedic-surgery-sylvania"
  },
  {
    "id": 1008,
    "Latitude": "41.3752928",
    "Longitude": "-83.66701090000001",
    "Address": "960 W. Wooster Suite 110",
    "ZipCode": "43402",
    "City": "Bowling Green",
    "State": "Ohio",
    "DirectURL": "promedica-physicians-jobst-vascular-bowling-green"
  },
  {
    "id": 1009,
    "Latitude": "41.1144846",
    "Longitude": "-83.201864",
    "Address": "81 Ashwood Drive ",
    "ZipCode": "44883",
    "City": "Tiffin",
    "State": "Ohio",
    "DirectURL": "promedica-physicians-jobst-vascular-tiffin"
  },
  {
    "id": 1013,
    "Latitude": "41.3420817",
    "Longitude": "-83.1453155",
    "Address": "2281 Hayes Ave. ",
    "ZipCode": "43420",
    "City": "Fremont",
    "State": "Ohio",
    "DirectURL": "promedica-physicians-general-surgery-fremont"
  },
  {
    "id": 1022,
    "Latitude": "41.9255701",
    "Longitude": "-83.3869107",
    "Address": "730 N. Macomb St Suite 329",
    "ZipCode": "48162",
    "City": "Monroe",
    "State": "Michigan",
    "DirectURL": "promedica-physicians-general-surgery-monroe-1"
  },
  {
    "id": 1025,
    "Latitude": "41.7114049",
    "Longitude": "-83.6763172",
    "Address": "5700 Monroe St. Suite 204",
    "ZipCode": "43560",
    "City": "Sylvania",
    "State": "Ohio",
    "DirectURL": "promedica-physicians-family-medicine-sylvania"
  },
  {
    "id": 1028,
    "Latitude": "41.4707091",
    "Longitude": "-83.29913359999999",
    "Address": "3105 S. State Route 51 ",
    "ZipCode": "43416",
    "City": "Elmore",
    "State": "Ohio",
    "DirectURL": "promedica-physicians-internal-medicine-elmore"
  },
  {
    "id": 1029,
    "Latitude": "41.2986899",
    "Longitude": "-84.3767112",
    "Address": "1200 Ralston Ave. ",
    "ZipCode": "43512",
    "City": "Defiance",
    "State": "Ohio",
    "DirectURL": "promedica-defiance-regional-hospital-emergency-center"
  },
  {
    "id": 1030,
    "Latitude": "41.6207872",
    "Longitude": "-83.4799506",
    "Address": "2801 Bay Park Drive ",
    "ZipCode": "43616",
    "City": "Oregon",
    "State": "Ohio",
    "DirectURL": "promedica-bay-park-hospital-emergency-center"
  },
  {
    "id": 1032,
    "Latitude": "41.7093178",
    "Longitude": "-83.6904552",
    "Address": "5200 Harroun Road ",
    "ZipCode": "43560",
    "City": "Sylvania",
    "State": "Ohio",
    "DirectURL": "promedica-flower-hospital-emergency-center"
  },
  {
    "id": 1033,
    "Latitude": "41.1628266",
    "Longitude": "-83.4242445",
    "Address": "501 Van Buren St. ",
    "ZipCode": "44830",
    "City": "Fostoria",
    "State": "Ohio",
    "DirectURL": "promedica-fostoria-community-hospital-emergency-center"
  },
  {
    "id": 1035,
    "Latitude": "41.3395073",
    "Longitude": "-83.1349326",
    "Address": "715 S. Taft Ave. ",
    "ZipCode": "43420",
    "City": "Fremont",
    "State": "Ohio",
    "DirectURL": "promedica-memorial-hospital-emergency-center"
  },
  {
    "id": 1036,
    "Latitude": "41.9255529",
    "Longitude": "-83.3887474",
    "Address": "718 N. Macomb St. ",
    "ZipCode": "48162",
    "City": "Monroe",
    "State": "Michigan",
    "DirectURL": "promedica-monroe-regional-hospital-emergency-center"
  },
  {
    "id": 1037,
    "Latitude": "41.6730403",
    "Longitude": "-83.5949906",
    "Address": "2142 N. Cove Blvd.  ",
    "ZipCode": "43606",
    "City": "Toledo",
    "State": "Ohio",
    "DirectURL": "promedica-russell-j-ebeid-children-s-hospital-emergency-center"
  },
  {
    "id": 1038,
    "Latitude": "41.6730403",
    "Longitude": "-83.5949906",
    "Address": "2142 N. Cove Blvd. ",
    "ZipCode": "43606",
    "City": "Toledo",
    "State": "Ohio",
    "DirectURL": "promedica-toledo-hospital-emergency-center"
  },
  {
    "id": 1041,
    "Latitude": "41.9255529",
    "Longitude": "-83.3887474",
    "Address": "718 N. Macomb Street ",
    "ZipCode": null,
    "City": "Monroe",
    "State": "Michigan",
    "DirectURL": "promedica-monroe-regional-hospital-surgery-center"
  },
  {
    "id": 1042,
    "Latitude": "41.9377477",
    "Longitude": "-83.39421209999999",
    "Address": "650 Stewart Rd. ",
    "ZipCode": "48162",
    "City": "Monroe",
    "State": "Michigan",
    "DirectURL": "promedica-monroe-regional-hospital-family-medicine-residency"
  },
  {
    "id": 1043,
    "Latitude": "41.6748",
    "Longitude": "-83.595376",
    "Address": "2109 Hughes Dr. Suite 760",
    "ZipCode": "43606",
    "City": "Toledo",
    "State": "Ohio",
    "DirectURL": "promedica-physicians-hepatobiliary-pancreatic-and-endocrine-surgery"
  },
  {
    "id": 1045,
    "Latitude": "41.6214264",
    "Longitude": "-83.4810246",
    "Address": "2751 Bay Park Drive Suite 130",
    "ZipCode": "43616",
    "City": "Oregon",
    "State": "Ohio",
    "DirectURL": "promedica-bay-park-hospital-cardiac-rehab-oregon"
  },
  {
    "id": 1046,
    "Latitude": "41.9255529",
    "Longitude": "-83.3887474",
    "Address": "718 N. Macomb St. ",
    "ZipCode": "48162",
    "City": "Monroe",
    "State": "Michigan",
    "DirectURL": "promedica-monroe-regional-hospital-cardiac-rehab"
  },
  {
    "id": 1047,
    "Latitude": "41.5579697",
    "Longitude": "-83.67706559999999",
    "Address": "5705 Monclova Rd. Suite 205",
    "ZipCode": "43537",
    "City": "Maumee",
    "State": "Ohio",
    "DirectURL": "promedica-physicians-jobst-vascular-maumee"
  },
  {
    "id": 1049,
    "Latitude": "42.05578939999999",
    "Longitude": "-83.37946869999999",
    "Address": "111 Medical Center Drive ",
    "ZipCode": "48117",
    "City": "Carleton",
    "State": "Michigan",
    "DirectURL": "promedica-physicians-family-medicine-carleton"
  },
  {
    "id": 1050,
    "Latitude": "41.8869676",
    "Longitude": "-83.3926731",
    "Address": "14930 LaPlaisance Rd. Suite 118",
    "ZipCode": "48161",
    "City": "Monroe",
    "State": "Michigan",
    "DirectURL": "promedica-physicians-family-medicine"
  },
  {
    "id": 1055,
    "Latitude": "41.2998958",
    "Longitude": "-84.37445699999999",
    "Address": "1252 Ralston Ave. Suite 401",
    "ZipCode": "43512",
    "City": "Defiance",
    "State": "Ohio",
    "DirectURL": "jobst-medication-therapy-management-defiance"
  },
  {
    "id": 1057,
    "Latitude": "41.9255529",
    "Longitude": "-83.3887474",
    "Address": "718 N. Macomb Street ",
    "ZipCode": "48162",
    "City": "Monroe",
    "State": "Michigan",
    "DirectURL": "jobst-medication-therapy-management-monroe"
  },
  {
    "id": 1058,
    "Latitude": "41.7093178",
    "Longitude": "-83.6904552",
    "Address": "5200 Harroun Road ",
    "ZipCode": "43260",
    "City": "Sylvania",
    "State": "Ohio",
    "DirectURL": "promedica-pulmonary-clinic-sylvania"
  },
  {
    "id": 1059,
    "Latitude": "41.6207872",
    "Longitude": "-83.4799506",
    "Address": "2801 Bay Park Drive ",
    "ZipCode": "43616",
    "City": "Oregon",
    "State": "Ohio",
    "DirectURL": "promedica-pulmonary-clinic-oregon"
  },
  {
    "id": 1062,
    "Latitude": "41.7093178",
    "Longitude": "-83.6904552",
    "Address": "5200 Harroun Road Suite 100",
    "ZipCode": "43560",
    "City": "Sylvania",
    "State": "Ohio",
    "DirectURL": "jobst-medication-therapy-management-sylvania"
  },
  {
    "id": 1065,
    "Latitude": "41.678478",
    "Longitude": "-83.5945103",
    "Address": "2100 W. Central Ave. ",
    "ZipCode": "43606",
    "City": "Toledo",
    "State": "Ohio",
    "DirectURL": "promedica-laboratories-falzone-diabetes-center"
  },
  {
    "id": 1066,
    "Latitude": "41.7112838",
    "Longitude": "-83.6764257",
    "Address": "5700 Monroe Street Suite 210",
    "ZipCode": "43560",
    "City": "Sylvania",
    "State": "Ohio",
    "DirectURL": "promedica-physicians-colorectal-surgery"
  },
  {
    "id": 1067,
    "Latitude": "41.1628266",
    "Longitude": "-83.4242445",
    "Address": "501 Van Buren St. Located In Entrance 2",
    "ZipCode": "44830",
    "City": "Fostoria",
    "State": "Ohio",
    "DirectURL": "promedica-fostoria-community-hospital-outpatient-pharmacy"
  },
  {
    "id": 1068,
    "Latitude": "41.678298",
    "Longitude": "-83.6203984",
    "Address": "3144 W. Central Ave ",
    "ZipCode": "43606",
    "City": "Toledo",
    "State": "Ohio",
    "DirectURL": "promedica-adherence-pharmacy"
  },
  {
    "id": 1069,
    "Latitude": "41.3417112",
    "Longitude": "-83.152923",
    "Address": "2575 Hayes Ave. Ste. 2",
    "ZipCode": "43420",
    "City": "Fremont",
    "State": "Ohio",
    "DirectURL": "promedica-laboratories-fremont"
  },
  {
    "id": 1070,
    "Latitude": "41.6379181",
    "Longitude": "-83.4540387",
    "Address": "3929 Navarre Ave. ",
    "ZipCode": "43616",
    "City": "Oregon",
    "State": "Ohio",
    "DirectURL": "promedica-physicians-family-medicine-oregon"
  },
  {
    "id": 1073,
    "Latitude": "41.92557",
    "Longitude": "-83.3869108",
    "Address": "730 N. Macomb St. Suite 429-A",
    "ZipCode": "48162",
    "City": "Monroe",
    "State": "Michigan",
    "DirectURL": "promedica-physicians-cardiology-monroe"
  },
  {
    "id": 1074,
    "Latitude": "41.6214328",
    "Longitude": "-83.48073189999999",
    "Address": "2751 Bay Park Drive Suite 300",
    "ZipCode": "43616",
    "City": "Oregon",
    "State": "Ohio",
    "DirectURL": "promedica-physicians-jobst-vascular-oregon"
  },
  {
    "id": 1076,
    "Latitude": "41.6802208",
    "Longitude": "-83.59420440000001",
    "Address": "2120 W. Central Ave. ",
    "ZipCode": "43606",
    "City": "Toledo",
    "State": "Ohio",
    "DirectURL": "promedica-parkway-surgery-center"
  },
  {
    "id": 1077,
    "Latitude": "41.3395073",
    "Longitude": "-83.1349326",
    "Address": "715 S. Taft Ave. ",
    "ZipCode": "43420",
    "City": "Fremont",
    "State": "Ohio",
    "DirectURL": "promedica-heart-failure-clinic-fremont"
  },
  {
    "id": 1079,
    "Latitude": "41.916592",
    "Longitude": "-83.3934194",
    "Address": "214 E. Elm Ave. Suite 101",
    "ZipCode": "48162",
    "City": "Monroe",
    "State": "Michigan",
    "DirectURL": "promedica-genito-urinary-surgeons-monroe"
  },
  {
    "id": 1080,
    "Latitude": "41.3118774",
    "Longitude": "-82.98134709999999",
    "Address": "455 W. McPherson Hwy.  Suite B",
    "ZipCode": "43410",
    "City": "Clyde",
    "State": "Ohio",
    "DirectURL": "promedica-physicians-internal-medicine-clyde"
  },
  {
    "id": 1081,
    "Latitude": "41.7114673",
    "Longitude": "-83.6763764",
    "Address": "5700 Monroe Street Suite 310",
    "ZipCode": "43560",
    "City": "Sylvania",
    "State": "Ohio",
    "DirectURL": "promedica-audiology-1"
  },
  {
    "id": 1083,
    "Latitude": "41.6576142",
    "Longitude": "-83.5470978",
    "Address": "1806 Madison Ave. 2nd Floor",
    "ZipCode": "43604",
    "City": "Toledo",
    "State": "Ohio",
    "DirectURL": "promedica-ebeid-institute"
  },
  {
    "id": 1086,
    "Latitude": "41.6207872",
    "Longitude": "-83.4799506",
    "Address": "2801 Bay Park Dr ",
    "ZipCode": "43616",
    "City": "Oregon",
    "State": "Ohio",
    "DirectURL": "promedica-bay-park-hospital-cancer-center"
  },
  {
    "id": 1087,
    "Latitude": "41.6787941",
    "Longitude": "-83.5927002",
    "Address": "1 ProMedica Parkway. Entrance B ",
    "ZipCode": "43606",
    "City": "Toledo",
    "State": "Ohio",
    "DirectURL": "promedica-toledo-hospital-cancer-care"
  },
  {
    "id": 1089,
    "Latitude": "41.2986899",
    "Longitude": "-84.3767112",
    "Address": "1200 Ralston Ave ",
    "ZipCode": "43512",
    "City": "Defiance",
    "State": "Ohio",
    "DirectURL": "promedica-defiance-regional-hospital-cancer-center"
  },
  {
    "id": 1090,
    "Latitude": "41.1628266",
    "Longitude": "-83.4242445",
    "Address": "501 Van Buren St. ",
    "ZipCode": "44830",
    "City": "Fostoria",
    "State": "Ohio",
    "DirectURL": "promedica-fostoria-community-hospital-cancer-care"
  },
  {
    "id": 1091,
    "Latitude": "41.9913349",
    "Longitude": "-83.28990349999999",
    "Address": "7825 N. Dixie Hwy. Suite 101",
    "ZipCode": "48166",
    "City": "Newport",
    "State": "Michigan",
    "DirectURL": "promedica-physicians-family-medicine-newport"
  },
  {
    "id": 1097,
    "Latitude": "42.0010145",
    "Longitude": "-83.9373341",
    "Address": "501 E. Cummins ",
    "ZipCode": "49286",
    "City": "Tecumseh",
    "State": "Michigan",
    "DirectURL": "promedica-laboratories-tecumseh"
  },
  {
    "id": 1107,
    "Latitude": null,
    "Longitude": null,
    "Address": " ",
    "ZipCode": null,
    "City": null,
    "State": null,
    "DirectURL": "promedica-bay-park-hospital-orthopaedics"
  },
  {
    "id": 1108,
    "Latitude": null,
    "Longitude": null,
    "Address": " ",
    "ZipCode": null,
    "City": null,
    "State": null,
    "DirectURL": "promedica-defiance-regional-hospital-orthopaedics"
  },
  {
    "id": 1109,
    "Latitude": null,
    "Longitude": null,
    "Address": " ",
    "ZipCode": null,
    "City": null,
    "State": null,
    "DirectURL": "promedica-fostoria-community-hospital-orthopaedics"
  },
  {
    "id": 1110,
    "Latitude": null,
    "Longitude": null,
    "Address": " ",
    "ZipCode": null,
    "City": null,
    "State": null,
    "DirectURL": "promedica-memorial-hospital-orthopaedics"
  },
  {
    "id": 1111,
    "Latitude": null,
    "Longitude": null,
    "Address": " ",
    "ZipCode": null,
    "City": null,
    "State": null,
    "DirectURL": "promedica-russell-j-ebeids-childrens-hospital-orthopaedics"
  },
  {
    "id": 1112,
    "Latitude": null,
    "Longitude": null,
    "Address": " ",
    "ZipCode": null,
    "City": null,
    "State": null,
    "DirectURL": "promedica-flower-hospital-orthopaedics"
  },
  {
    "id": 1115,
    "Latitude": null,
    "Longitude": null,
    "Address": " ",
    "ZipCode": null,
    "City": null,
    "State": null,
    "DirectURL": "promedica-monroe-regional-hospital-orthopaedics"
  },
  {
    "id": 1124,
    "Latitude": "41.5135338",
    "Longitude": "-82.9102362",
    "Address": "1854 E. Perry Street Suite 4",
    "ZipCode": "43452",
    "City": "Port Clinton",
    "State": "Ohio",
    "DirectURL": "promedica-physicians-family-medicine-port-clinton"
  },
  {
    "id": 1126,
    "Latitude": "41.6832757",
    "Longitude": "-83.6214986",
    "Address": "3430 Secor Road ",
    "ZipCode": "43606",
    "City": "Toledo",
    "State": "Ohio",
    "DirectURL": "promedica-urgent-care-toledo-secor"
  },
  {
    "id": 1127,
    "Latitude": "41.34138799999999",
    "Longitude": "-83.14456390000001",
    "Address": "2265 Hayes Ave. ",
    "ZipCode": "43420",
    "City": "Fremont",
    "State": "Ohio",
    "DirectURL": "promedica-physicians-family-medicine-fremont"
  },
  {
    "id": 1129,
    "Latitude": "41.7112838",
    "Longitude": "-83.6764257",
    "Address": "5700 Monroe St. Suite 202",
    "ZipCode": "43560",
    "City": "Sylvania",
    "State": "Ohio",
    "DirectURL": "promedica-physicians-rheumatology"
  },
  {
    "id": 1130,
    "Latitude": "41.53777669999999",
    "Longitude": "-84.13167109999999",
    "Address": "725 S. Shoop Ave. ",
    "ZipCode": "43567",
    "City": "Wauseon",
    "State": "Ohio",
    "DirectURL": "promedica-hematology-oncology-associates-wauseon"
  },
  {
    "id": 1132,
    "Latitude": "41.3391765",
    "Longitude": "-83.1329846",
    "Address": "710 Cleveland Ave. ",
    "ZipCode": "43420",
    "City": "Fremont",
    "State": "Ohio",
    "DirectURL": "promedica-physicians-behavioral-health-fremont"
  },
  {
    "id": 1133,
    "Latitude": "41.0419946",
    "Longitude": "-83.6276931",
    "Address": "1100 E. Main Cross Suite 159",
    "ZipCode": "45840",
    "City": "Findlay",
    "State": "Ohio",
    "DirectURL": "promedica-physicians-behavioral-health-findlay"
  },
  {
    "id": 1134,
    "Latitude": "41.2986899",
    "Longitude": "-84.3767112",
    "Address": "1200 Ralston Ave. ",
    "ZipCode": "43512",
    "City": "Defiance",
    "State": "Ohio",
    "DirectURL": "promedica-pulmonary-clinic-defiance"
  },
  {
    "id": 1135,
    "Latitude": "41.1628266",
    "Longitude": "-83.4242445",
    "Address": "501 Van Buren St. ",
    "ZipCode": "44830",
    "City": "Fostoria",
    "State": "Ohio",
    "DirectURL": "promedica-pulmonary-clinic-fostoria"
  },
  {
    "id": 1136,
    "Latitude": null,
    "Longitude": null,
    "Address": null,
    "ZipCode": "43420",
    "City": null,
    "State": null,
    "DirectURL": "promedica-pulmonary-clinic-fremont"
  },
  {
    "id": 1137,
    "Latitude": "41.678248",
    "Longitude": "-83.59655719999999",
    "Address": "2150 W. Central Ave. ",
    "ZipCode": "43606",
    "City": "Toledo",
    "State": "Ohio",
    "DirectURL": "promedica-food-clinic-toledo"
  },
  {
    "id": 1147,
    "Latitude": "41.9145786",
    "Longitude": "-84.04879729999999",
    "Address": "777 Kimole Lane Suite 230",
    "ZipCode": "49221",
    "City": "Adrian",
    "State": "Michigan",
    "DirectURL": "promedica-physicians-urology-adrian"
  },
  {
    "id": 1148,
    "Latitude": "41.9255529",
    "Longitude": "-83.3887474",
    "Address": "718 N. Macomb St. ",
    "ZipCode": "48162",
    "City": "Monroe",
    "State": "Michigan",
    "DirectURL": "promedica-monroe-regional-hospital-women-s-health-center"
  },
  {
    "id": 1149,
    "Latitude": "41.9382287",
    "Longitude": "-84.98983919999999",
    "Address": "274 East Chicago Street ",
    "ZipCode": "49036",
    "City": "Coldwater",
    "State": "Michigan",
    "DirectURL": "promedica-coldwater-regional-hospital"
  },
  {
    "id": 1150,
    "Latitude": "40.0696896",
    "Longitude": "-82.40302149999999",
    "Address": "380 John St. ",
    "ZipCode": "43055",
    "City": "Newark",
    "State": "Ohio",
    "DirectURL": "promedica-physicians-at-owens-corning-newark"
  },
  {
    "id": 1151,
    "Latitude": "40.0557152",
    "Longitude": "-82.551602",
    "Address": "2790 Columbus Rd. ",
    "ZipCode": "43023",
    "City": "Granville",
    "State": "Ohio",
    "DirectURL": "promedica-physicians-at-owens-corning-granville"
  },
  {
    "id": 1152,
    "Latitude": "41.6207872",
    "Longitude": "-83.4799506",
    "Address": "2801 Bay Park Drive Suite 130",
    "ZipCode": "43616",
    "City": "Oregon",
    "State": "Ohio",
    "DirectURL": "promedica-pulmonary-rehab-oregon"
  },
  {
    "id": 1153,
    "Latitude": "41.2986899",
    "Longitude": "-84.3767112",
    "Address": "1200 Ralston Ave. ",
    "ZipCode": "43512",
    "City": "Defiance",
    "State": "Ohio",
    "DirectURL": "promedica-pulmonary-rehab-defiance"
  },
  {
    "id": 1154,
    "Latitude": "41.7093178",
    "Longitude": "-83.6904552",
    "Address": "5200 Harroun Road ",
    "ZipCode": "43560",
    "City": "Sylvania",
    "State": "Ohio",
    "DirectURL": "promedica-pulmonary-rehab-sylvania"
  },
  {
    "id": 1155,
    "Latitude": "41.1628266",
    "Longitude": "-83.4242445",
    "Address": "501 Van Buren St. ",
    "ZipCode": "44830",
    "City": "Fostoria",
    "State": "Ohio",
    "DirectURL": "promedica-pulmonary-rehab-fostoria"
  },
  {
    "id": 1156,
    "Latitude": "41.3395073",
    "Longitude": "-83.1349326",
    "Address": "715 S. Taft Ave. ",
    "ZipCode": "43420",
    "City": "Fremont",
    "State": "Ohio",
    "DirectURL": "promedica-pulmonary-rehab-fremont"
  },
  {
    "id": 1157,
    "Latitude": "41.9274456",
    "Longitude": "-83.38953880000001",
    "Address": "901 Macomb Street ",
    "ZipCode": "48162",
    "City": "Monroe",
    "State": "Michigan",
    "DirectURL": "promedica-pulmonary-rehab-monroe"
  },
  {
    "id": 1158,
    "Latitude": "41.6732086",
    "Longitude": "-83.7012312",
    "Address": "2940 N. McCord Road",
    "ZipCode": "43615",
    "City": "Toledo",
    "State": "Ohio",
    "DirectURL": "promedica-device-clinic"
  },
  {
    "id": 1159,
    "Latitude": "41.6730403",
    "Longitude": "-83.5949906",
    "Address": "2142 N. Cove Blvd. ",
    "ZipCode": "43606",
    "City": "Toledo",
    "State": "Ohio",
    "DirectURL": "promedica-heart-rhythm-center"
  },
  {
    "id": 1165,
    "Latitude": "41.59032879999999",
    "Longitude": "-83.68198099999999",
    "Address": "1724 Indian Wood Circle ",
    "ZipCode": "43537",
    "City": "Maumee",
    "State": "Ohio",
    "DirectURL": "promedica-learning-and-education-building"
  },
  {
    "id": 1166,
    "Latitude": "41.9324865",
    "Longitude": "-83.38872649999999",
    "Address": "1180 N. Monroe St. ",
    "ZipCode": "48162",
    "City": "Monroe",
    "State": "Michigan",
    "DirectURL": "promedica-physicians-neurology-monroe"
  },
  {
    "id": 1167,
    "Latitude": "41.9919938",
    "Longitude": "-83.9418012",
    "Address": "200 E. Russel Rd. ",
    "ZipCode": "49286",
    "City": "Tecumseh",
    "State": "Michigan",
    "DirectURL": "promedica-physicians-neurology-tecumseh"
  },
  {
    "id": 1176,
    "Latitude": "41.6800973",
    "Longitude": "-83.59575649999999",
    "Address": "2130 W. Central Ave. ",
    "ZipCode": "43606",
    "City": "Toledo",
    "State": "Ohio",
    "DirectURL": "neurosciences-center"
  },
  {
    "id": 1177,
    "Latitude": "41.6800973",
    "Longitude": "-83.59575649999999",
    "Address": "2130 W. Central Ave. Suite 203",
    "ZipCode": "43606",
    "City": "Toledo",
    "State": "Ohio",
    "DirectURL": "promedica-neurophysiology"
  },
  {
    "id": 1179,
    "Latitude": "41.6800973",
    "Longitude": "-83.59575649999999",
    "Address": "2130 W. Central Ave. Suite 202",
    "ZipCode": "43606",
    "City": "Toledo",
    "State": "Ohio",
    "DirectURL": "promedica-total-rehab-neurology"
  },
  {
    "id": 1180,
    "Latitude": "41.6800973",
    "Longitude": "-83.59575649999999",
    "Address": "2130 W. Central Ave. Suite 203",
    "ZipCode": "43606",
    "City": "Toledo",
    "State": "Ohio",
    "DirectURL": "promedica-audiology"
  },
  {
    "id": 1182,
    "Latitude": "41.2998958",
    "Longitude": "-84.37445699999999",
    "Address": "1252 Ralston Ave. Suite 401",
    "ZipCode": "43512",
    "City": "Defiance",
    "State": "Ohio",
    "DirectURL": "promedica-behavioral-health-defiance"
  },
  {
    "id": 1183,
    "Latitude": "41.2998958",
    "Longitude": "-84.37445699999999",
    "Address": "1252 Ralston Ave. Suite 402",
    "ZipCode": "43512",
    "City": "Defiance",
    "State": "Ohio",
    "DirectURL": "promedica-physicians-neurosurgery-defiance"
  },
  {
    "id": 1187,
    "Latitude": "41.9255529",
    "Longitude": "-83.3887474",
    "Address": "718 North Macomb St. Fifth Floor",
    "ZipCode": "48162",
    "City": "Monroe",
    "State": "Michigan",
    "DirectURL": "promedica-monroe-regional-hospital-cancer-and-infusion-services"
  },
  {
    "id": 1188,
    "Latitude": "40.0896456",
    "Longitude": "-84.6358541",
    "Address": "716 Sweitzer Street ",
    "ZipCode": "45331",
    "City": "Greenville",
    "State": "Ohio",
    "DirectURL": "promedica-360health-greenville"
  },
  {
    "id": 1192,
    "Latitude": "41.92557",
    "Longitude": "-83.3869108",
    "Address": "730 N. Macomb St. Suite 416",
    "ZipCode": "48162",
    "City": "Monroe",
    "State": "Michigan",
    "DirectURL": "promedica-physicians-monroe-cardiology-amin"
  },
  {
    "id": 1196,
    "Latitude": "41.9255529",
    "Longitude": "-83.3887474",
    "Address": "718 N. Macomb St. ",
    "ZipCode": "48162",
    "City": "Monroe",
    "State": "Michigan",
    "DirectURL": "promedica-sleep-center-monroe"
  },
  {
    "id": 1197,
    "Latitude": "41.5238143",
    "Longitude": "-83.6397594",
    "Address": "5180 Chappel Drive ",
    "ZipCode": "43551",
    "City": "Perrysburg",
    "State": "Ohio",
    "DirectURL": "promedica-physicians-obstetrics-gynecology-levis-commons"
  },
  {
    "id": 1198,
    "Latitude": "41.6800973",
    "Longitude": "-83.59575649999999",
    "Address": "2130 W. Central Ave. Suite 105",
    "ZipCode": "43606",
    "City": "Toledo",
    "State": "Ohio",
    "DirectURL": "promedica-spine-care"
  },
  {
    "id": 1199,
    "Latitude": "41.91309709999999",
    "Longitude": "-84.0478712",
    "Address": "770 Riverside Ave. Suite 106",
    "ZipCode": "49221",
    "City": "Adrian",
    "State": "Michigan",
    "DirectURL": "promedica-physicians-podiatry-adrian"
  },
  {
    "id": 1201,
    "Latitude": "41.92557",
    "Longitude": "-83.3869108",
    "Address": "730 N. Macomb Street Suite 229",
    "ZipCode": "48162",
    "City": "Monroe",
    "State": "Michigan",
    "DirectURL": "promedica-physicians-family-medicine-monroe-1"
  },
  {
    "id": 1212,
    "Latitude": "41.5664768",
    "Longitude": "-83.65318630000002",
    "Address": "217 Golden Gate Plaza ",
    "ZipCode": "43537",
    "City": "Maumee",
    "State": "Ohio",
    "DirectURL": "promedica-physicians-ear-nose-and-throat-maumee"
  },
  {
    "id": 1213,
    "Latitude": "41.7130498",
    "Longitude": "-83.6839555",
    "Address": "5855 Monroe Street ",
    "ZipCode": "43560",
    "City": "Sylvania",
    "State": "Ohio",
    "DirectURL": "promedica-integrated-medical-solutions"
  },
  {
    "id": 1214,
    "Latitude": "41.9167948",
    "Longitude": "-84.0465195",
    "Address": "901 Kimole Lane Suite A-4",
    "ZipCode": "49221",
    "City": "Adrian",
    "State": "Michigan",
    "DirectURL": "promedica-physicians-family-medicine-adrian"
  },
  {
    "id": 1215,
    "Latitude": "41.8546647",
    "Longitude": "-84.3566285",
    "Address": "331 W. Main St. ",
    "ZipCode": "49247",
    "City": "Hudson",
    "State": "Michigan",
    "DirectURL": "promedica-physicians-family-medicine-hudson"
  },
  {
    "id": 1216,
    "Latitude": "41.9332258",
    "Longitude": "-84.0037639",
    "Address": "3245 N. Adrian Highway Suite A",
    "ZipCode": "49221",
    "City": "Adrian",
    "State": "Michigan",
    "DirectURL": "promedica-physicians-adrian-pediatrics"
  },
  {
    "id": 1218,
    "Latitude": "41.5579822",
    "Longitude": "-83.67959429999999",
    "Address": "5805 Monclova Road ",
    "ZipCode": "43537",
    "City": "Maumee",
    "State": "Ohio",
    "DirectURL": "promedica-maumee-cancer-center"
  },
  {
    "id": 1221,
    "Latitude": "41.9363468",
    "Longitude": "-84.9860776",
    "Address": "370 E. Chicago St. Suite 200",
    "ZipCode": "49036",
    "City": "Coldwater",
    "State": "Michigan",
    "DirectURL": "coldwater-family-medical-center"
  },
  {
    "id": 1223,
    "Latitude": "42.05036459999999",
    "Longitude": "-84.7582003",
    "Address": "413 N. Chicago St. ",
    "ZipCode": "49252",
    "City": "Litchfield",
    "State": "Michigan",
    "DirectURL": "litchfield-family-medical-center"
  },
  {
    "id": 1224,
    "Latitude": "41.8742726",
    "Longitude": "-85.17851399999999",
    "Address": "721 E. Chicago St. ",
    "ZipCode": "49028",
    "City": "Bronson",
    "State": "Michigan",
    "DirectURL": "promedica-family-practice-of-bronson"
  },
  {
    "id": 1225,
    "Latitude": "41.9382287",
    "Longitude": "-84.98983919999999",
    "Address": "274 East Chicago Street  ",
    "ZipCode": "49036",
    "City": "Coldwater",
    "State": "Michigan",
    "DirectURL": "promedica-coldwater-regional-hospital-emergency-center"
  },
  {
    "id": 1227,
    "Latitude": "41.52738799999999",
    "Longitude": "-83.6448288",
    "Address": "6175 Levis Commons Blvd. ",
    "ZipCode": "43551",
    "City": "Perrysburg",
    "State": "Ohio",
    "DirectURL": "promedica-physicians-neurosurgery-perrysburg"
  },
  {
    "id": 1230,
    "Latitude": "41.1349722",
    "Longitude": "-84.6016334",
    "Address": "1035 W. Wayne St. ",
    "ZipCode": "45879",
    "City": "Paulding",
    "State": "Ohio",
    "DirectURL": "promedica-physicians-obstetrics-l-gynecology-paulding"
  },
  {
    "id": 1231,
    "Latitude": "41.7096481",
    "Longitude": "-83.69118449999999",
    "Address": "5308 Harroun Road Suite 175",
    "ZipCode": "43560",
    "City": "Sylvania",
    "State": "Ohio",
    "DirectURL": "promedica-pelvic-health"
  },
  {
    "id": 1232,
    "Latitude": "41.98981209999999",
    "Longitude": "-83.96409059999999",
    "Address": "6869 S. Occidental Hwy. ",
    "ZipCode": "49286",
    "City": "Tecumseh",
    "State": "Michigan",
    "DirectURL": "promedica-physicians-health-specialists-of-lenawee"
  },
  {
    "id": 1233,
    "Latitude": "41.9324865",
    "Longitude": "-83.38872649999999",
    "Address": "1180 N Monroe St ",
    "ZipCode": "48162",
    "City": "Monroe",
    "State": "Michigan",
    "DirectURL": "promedica-physicians-neurosurgery-monroe"
  },
  {
    "id": 1234,
    "Latitude": "41.71006420000001",
    "Longitude": "-83.6915971",
    "Address": "5308 Harroun Road Ste. 180",
    "ZipCode": "43560",
    "City": "Sylvania",
    "State": "Ohio",
    "DirectURL": "promedica-physicians-pulmonary-sleep-medicine-sylvania"
  },
  {
    "id": 1235,
    "Latitude": "41.1467828",
    "Longitude": "-83.39794640000001",
    "Address": "751 Columbus Ave. Suite A",
    "ZipCode": "44830",
    "City": "Fostoria",
    "State": "Ohio",
    "DirectURL": "promedica-physicians-family-medicine-fostoria-1"
  },
  {
    "id": 1236,
    "Latitude": "41.1628266",
    "Longitude": "-83.4242445",
    "Address": "501 Van Buren Street Suite 010",
    "ZipCode": "44830",
    "City": "Fostoria",
    "State": "Ohio",
    "DirectURL": "promedica-physicians-behavioral-health-fostoria"
  },
  {
    "id": 1237,
    "Latitude": "41.7096481",
    "Longitude": "-83.69118449999999",
    "Address": "5308 Harroun Road Suite 175",
    "ZipCode": "43560",
    "City": "Sylvania",
    "State": "Ohio",
    "DirectURL": "promedica-physicians-urogynecology"
  },